$GPRMC,221505.00,A,3342.86468,N,11750.42875,W,0.047,,180324,,,A*60
$GPVTG,,T,,M,0.047,N,0.087,K,A*2F
$GPGGA,221505.00,3342.86468,N,11750.42875,W,1,07,1.28,27.1,M,-32.9,M,,*5E
$GPGSA,A,3,12,11,20,25,06,05,19,,,,,,2.21,1.28,1.80*0C
$GPGSV,3,1,12,05,22,165,33,06,31,041,27,11,69,043,33,12,76,332,34*74
$GPGSV,3,2,12,19,12,074,29,20,46,130,28,24,24,210,17,25,42,316,25*77
$GPGSV,3,3,12,28,04,325,,29,18,280,10,46,49,200,29,48,50,193,36*78
$GPGLL,3342.86468,N,11750.42875,W,221505.00,A,A*76

$GPTXT,01,01,02,u-blox ag - www.u-blox.com*50
$GPTXT,01,01,02,HW  UBX-G70xx   00070000 FF7FFFFFo*69

$GPTXT,01,01,02,ROM CORE 1.00 (59842) Jun 27 2012 17:43:52*59
$GPTXT,01,01,02,PROTVER 14.00*1E
$GPTXT,01,01,02,ANTSUPERV=AC SD PDoS SR*20
$GPTXT,01,01,02,ANTSTATUS=OK*3B
$GPTXT,01,01,02,LLC FFFFFFFF-FFFFFFFF-FFFFFFFF-FFFFFFFF-FFFFFFFD*2C

$GPRMC,221506.00,A,3342.86466,N,11750.42872,W,0.140,,180324,,,A*6C
$GPVTG,,T,,M,0.140,N,0.260,K,A*22

$GPGGA,221506.00,3342.86466,N,11750.42872,W,1,08,1.07,27.0,M,-32.9,M,,*57
$GPGSA,A,3,12,11,20,25,06,24,05,19,,,,,1.92,1.07,1.59*08
$GPGSV,3,1,12,05,22,165,31,06,31,041,27,11,69,043,33,12,76,332,36*74
$GPGSV,3,2,12,19,12,074,28,20,46,130,27,24,24,210,16,25,42,316,29*74
$GPGSV,3,3,12,28,04,325,,29,18,280,09,46,49,200,29,48,50,193,38*7E
$GPGLL,3342.86466,N,11750.42872,W,221506.00,A,A*7C

$GPRMC,221507.00,A,3342.86467,N,11750.42874,W,0.061,,180324,,,A*68
$GPVTG,,T,,M,0.061,N,0.113,K,A*27

$GPGGA,221507.00,3342.86467,N,11750.42874,W,1,08,1.07,27.0,M,-32.9,M,,*51
$GPGSA,A,3,12,11,20,25,06,24,05,19,,,,,1.92,1.07,1.59*08
$GPGSV,3,1,12,05,22,165,33,06,31,041,28,11,69,043,35,12,76,332,36*7F
$GPGSV,3,2,12,19,12,074,28,20,46,130,27,24,24,210,17,25,43,316,30*7C
$GPGSV,3,3,12,28,04,325,,29,18,280,10,46,49,200,30,48,50,193,39*7F
$GPGLL,3342.86467,N,11750.42874,W,221507.00,A,A*7A

$GPRMC,221508.00,A,3342.86466,N,11750.42874,W,0.046,,180324,,,A*63
$GPVTG,,T,,M,0.046,N,0.085,K,A*2C
$GPGGA,221508.00,3342.86466,N,11750.42874,W,1,08,1.07,26.9,M,-32.9,M,,*57
$GPGSA,A,3,12,11,20,25,06,24,05,19,,,,,1.92,1.07,1.59*08

$GPGSV,3,1,12,05,22,165,33,06,31,041,28,11,69,043,36,12,76,332,35*7F
$GPGSV,3,2,12,19,12,074,29,20,46,130,28,24,24,210,18,25,43,316,30*7D
$GPGSV,3,3,12,28,04,325,,29,18,280,09,46,49,200,30,48,50,193,39*77
$GPGLL,3342.86466,N,11750.42874,W,221508.00,A,A*74

$GPRMC,221509.00,A,3342.86464,N,11750.42874,W,0.030,,180324,,,A*61
$GPVTG,,T,,M,0.030,N,0.056,K,A*23

$GPGGA,221509.00,3342.86464,N,11750.42874,W,1,08,1.07,26.9,M,-32.9,M,,*54
$GPGSA,A,3,12,11,20,25,06,24,05,19,,,,,1.92,1.07,1.59*08
$GPGSV,3,1,12,05,22,165,33,06,31,041,28,11,69,043,36,12,76,332,36*7C
$GPGSV,3,2,12,19,12,074,29,20,46,130,28,24,24,210,19,25,43,316,31*7D
$GPGSV,3,3,12,28,04,325,,29,18,280,09,46,49,200,31,48,50,193,39*76
$GPGLL,3342.86464,N,11750.42874,W,221509.00,A,A*77

$GPRMC,221510.00,A,3342.86460,N,11750.42868,W,0.050,,180324,,,A*66
$GPVTG,,T,,M,0.050,N,0.092,K,A*2D

$GPGGA,221510.00,3342.86460,N,11750.42868,W,1,08,1.07,26.9,M,-32.9,M,,*55
$GPGSA,A,3,12,11,20,25,06,24,05,19,,,,,1.92,1.07,1.59*08
$GPGSV,3,1,12,05,22,165,33,06,31,041,28,11,69,043,35,12,76,332,35*7C
$GPGSV,3,2,12,19,12,074,28,20,46,130,27,24,24,210,19,25,43,316,31*73
$GPGSV,3,3,12,28,04,324,,29,18,280,08,46,49,200,31,48,50,193,38*77
$GPGLL,3342.86460,N,11750.42868,W,221510.00,A,A*76

$GPRMC,221511.00,A,3342.86460,N,11750.42864,W,0.093,,180324,,,A*64
$GPVTG,,T,,M,0.093,N,0.172,K,A*2D

$GPGGA,221511.00,3342.86460,N,11750.42864,W,1,08,1.07,27.0,M,-32.9,M,,*50
$GPGSA,A,3,12,11,20,25,06,24,05,19,,,,,1.92,1.07,1.59*08
$GPGSV,3,1,12,05,22,165,32,06,31,041,28,11,69,043,35,12,76,332,35*7D
$GPGSV,3,2,12,19,12,074,28,20,46,130,26,24,24,210,17,25,43,316,31*7C
$GPGSV,3,3,12,28,04,324,,29,18,280,08,46,49,200,31,48,50,193,38*77
$GPGLL,3342.86460,N,11750.42864,W,221511.00,A,A*7B

$GPRMC,221512.00,A,3342.86469,N,11750.42857,W,0.598,,180324,,,A*60
$GPVTG,,T,,M,0.598,N,1.107,K,A*20
$GPGGA,221512.00,3342.86469,N,11750.42857,W,1,08,1.07,26.9,M,-32.9,M,,*52
$GPGSA,A,3,12,11,20,25,06,24,05,19,,,,,1.92,1.07,1.59*08

$GPGSV,3,1,12,05,22,165,33,06,31,041,27,11,69,043,35,12,76,332,35*73
$GPGSV,3,2,12,19,12,074,28,20,46,130,32,24,24,210,17,25,43,316,32*7A
$GPGSV,3,3,12,28,04,324,,29,18,280,08,46,49,200,32,48,50,193,38*74
$GPGLL,3342.86469,N,11750.42857,W,221512.00,A,A*71

$GPRMC,221513.00,A,3342.86473,N,11750.42854,W,0.028,,180324,,,A*67
$GPVTG,,T,,M,0.028,N,0.052,K,A*2E

$GPGGA,221513.00,3342.86473,N,11750.42854,W,1,08,1.07,26.9,M,-32.9,M,,*5B
$GPGSA,A,3,12,11,20,25,06,24,05,19,,,,,1.92,1.07,1.59*08
$GPGSV,3,1,12,05,22,165,34,06,31,041,29,11,69,043,36,12,76,332,36*7A
$GPGSV,3,2,12,19,12,074,28,20,46,130,31,24,24,210,16,25,43,316,32*78
$GPGSV,3,3,12,28,04,324,,29,18,280,08,46,49,200,32,48,50,193,39*75
$GPGLL,3342.86473,N,11750.42854,W,221513.00,A,A*78

$GPRMC,221514.00,A,3342.86478,N,11750.42849,W,0.389,,180324,,,A*6F
$GPVTG,,T,,M,0.389,N,0.720,K,A*24

$GPGGA,221514.00,3342.86478,N,11750.42849,W,1,09,0.87,26.9,M,-32.9,M,,*53
$GPGSA,A,3,12,11,20,25,06,24,05,29,19,,,,1.60,0.87,1.34*0C
$GPGSV,3,1,12,05,22,165,32,06,31,041,29,11,69,043,34,12,76,332,35*7D
$GPGSV,3,2,12,19,12,074,28,20,46,130,29,24,24,210,15,25,43,316,30*70
$GPGSV,3,3,12,28,04,324,,29,18,280,07,46,49,200,31,48,50,193,38*78
$GPGLL,3342.86478,N,11750.42849,W,221514.00,A,A*78

$GPRMC,221515.00,A,3342.86496,N,11750.42826,W,1.244,36.56,180324,,,A*4E
$GPVTG,36.56,T,,M,1.244,N,2.303,K,A*0A

$GPGGA,221515.00,3342.86496,N,11750.42826,W,1,08,0.97,27.0,M,-32.9,M,,*53
$GPGSA,A,3,12,11,20,25,06,05,29,19,,,,,1.67,0.97,1.36*0E
$GPGSV,3,1,12,05,22,165,34,06,31,041,28,11,69,043,34,12,76,332,35*7A
$GPGSV,3,2,12,19,12,074,29,20,46,130,29,24,24,210,,25,43,316,29*7D
$GPGSV,3,3,12,28,04,324,,29,18,280,07,46,49,200,33,48,50,193,38*7A
$GPGLL,3342.86496,N,11750.42826,W,221515.00,A,A*70

$GPRMC,221516.00,A,3342.86520,N,11750.42804,W,1.158,37.67,180324,,,A*4C

$GPVTG,37.67,T,,M,1.158,N,2.144,K,A*06
$GPGGA,221516.00,3342.86520,N,11750.42804,W,1,08,0.97,27.0,M,-32.9,M,,*5C
$GPGSA,A,3,12,11,20,25,06,05,29,19,,,,,1.67,0.97,1.36*0E
$GPGSV,3,1,12,05,22,165,29,06,31,041,28,11,69,043,35,12,76,332,35*77
$GPGSV,3,2,12,19,12,074,30,20,46,130,22,24,24,210,16,25,43,316,29*79
$GPGSV,3,3,12,28,04,324,,29,18,280,07,46,49,200,37,48,50,193,38*7E
$GPGLL,3342.86520,N,11750.42804,W,221516.00,A,A*7F

$GPRMC,221517.00,A,3342.86543,N,11750.42774,W,1.348,,180324,,,A*68
$GPVTG,,T,,M,1.348,N,2.497,K,A*25
$GPGGA,221517.00,3342.86543,N,11750.42774,W,1,08,0.97,27.0,M,-32.9,M,,*50
$GPGSA,A,3,12,11,20,25,06,05,29,19,,,,,1.67,0.97,1.36*0E
$GPGSV,3,1,12,05,22,165,29,06,31,041,27,11,69,043,35,12,76,332,33*7E

$GPGSV,3,2,12,19,12,074,30,20,46,130,29,24,24,210,18,25,43,316,30*74
$GPGSV,3,3,12,28,04,324,,29,18,280,07,46,49,200,37,48,50,193,38*7E
$GPGLL,3342.86543,N,11750.42774,W,221517.00,A,A*73

$GPRMC,221518.00,A,3342.86584,N,11750.42726,W,2.220,38.24,180324,,,A*44
$GPVTG,38.24,T,,M,2.220,N,4.112,K,A*04

$GPGGA,221518.00,3342.86584,N,11750.42726,W,1,08,0.97,27.2,M,-32.9,M,,*51
$GPGSA,A,3,12,11,20,25,06,05,29,19,,,,,1.67,0.97,1.36*0E
$GPGSV,3,1,12,05,22,165,33,06,31,041,26,11,69,043,35,12,76,332,36*71
$GPGSV,3,2,12,19,12,074,31,20,46,130,28,24,24,210,20,25,43,316,32*7D
$GPGSV,3,3,12,28,04,324,,29,18,280,07,46,49,200,37,48,50,193,35*73
$GPGLL,3342.86584,N,11750.42726,W,221518.00,A,A*70

$GPRMC,221519.00,A,3342.86623,N,11750.42691,W,1.618,38.13,180324,,,A*4E

$GPVTG,38.13,T,,M,1.618,N,2.997,K,A*0F
$GPGGA,221519.00,3342.86623,N,11750.42691,W,1,09,0.97,27.0,M,-32.9,M,,*50
$GPGSA,A,3,12,11,20,25,06,24,05,29,19,,,,1.67,0.97,1.35*0B
$GPGSV,3,1,12,05,22,165,22,06,31,041,25,11,69,043,34,12,76,332,38*7D
$GPGSV,3,2,12,19,12,074,31,20,46,130,28,24,24,210,19,25,43,316,31*74
$GPGSV,3,3,12,28,04,324,,29,18,280,07,46,49,200,36,48,50,193,38*7F
$GPGLL,3342.86623,N,11750.42691,W,221519.00,A,A*72

$GPRMC,221520.00,A,3342.86667,N,11750.42643,W,2.062,39.26,180324,,,A*44

$GPVTG,39.26,T,,M,2.062,N,3.819,K,A*06
$GPGGA,221520.00,3342.86667,N,11750.42643,W,1,09,0.87,27.2,M,-32.9,M,,*56
$GPGSA,A,3,12,11,20,25,06,24,05,29,19,,,,1.60,0.87,1.34*0C
$GPGSV,3,1,12,05,22,165,33,06,31,041,23,11,69,043,33,12,76,332,37*73
$GPGSV,3,2,12,19,12,074,30,20,46,130,35,24,24,210,23,25,43,316,30*71
$GPGSV,3,3,12,28,04,324,,29,18,280,10,46,49,200,37,48,50,193,34*74
$GPGLL,3342.86667,N,11750.42643,W,221520.00,A,A*77

$GPRMC,221521.00,A,3342.86698,N,11750.42600,W,1.719,44.69,180324,,,A*4B
$GPVTG,44.69,T,,M,1.719,N,3.183,K,A*05

$GPGGA,221521.00,3342.86698,N,11750.42600,W,1,09,0.87,27.2,M,-32.9,M,,*50
$GPGSA,A,3,12,11,20,25,06,24,05,29,19,,,,1.60,0.87,1.34*0C
$GPGSV,3,1,12,05,22,165,29,06,31,041,22,11,69,043,34,12,76,332,31*78
$GPGSV,3,2,12,19,12,074,31,20,46,130,35,24,24,210,26,25,43,316,20*74
$GPGSV,3,3,12,28,04,324,,29,18,280,10,46,49,200,34,48,50,193,34*77
$GPGLL,3342.86698,N,11750.42600,W,221521.00,A,A*71

$GPRMC,221522.00,A,3342.86722,N,11750.42566,W,1.619,47.04,180324,,,A*42
$GPVTG,47.04,T,,M,1.619,N,2.999,K,A*0E

$GPGGA,221522.00,3342.86722,N,11750.42566,W,1,08,1.07,27.0,M,-32.9,M,,*5A
$GPGSA,A,3,12,11,20,25,06,24,05,19,,,,,1.92,1.07,1.59*08
$GPGSV,3,1,12,05,22,165,30,06,31,041,21,11,69,043,34,12,76,332,34*76
$GPGSV,3,2,12,19,12,074,29,20,46,130,36,24,24,210,32,25,43,316,29*72
$GPGSV,3,3,12,28,04,324,,29,18,280,02,46,49,200,27,48,50,193,30*72
$GPGLL,3342.86722,N,11750.42566,W,221522.00,A,A*71

$GPRMC,221523.00,A,3342.86746,N,11750.42531,W,1.263,47.29,180324,,,A*45
$GPVTG,47.29,T,,M,1.263,N,2.339,K,A*08

$GPGGA,221523.00,3342.86746,N,11750.42531,W,1,09,0.87,27.0,M,-32.9,M,,*53
$GPGSA,A,3,12,11,20,25,06,24,05,29,19,,,,1.60,0.87,1.34*0C
$GPGSV,3,1,12,05,22,165,31,06,31,041,23,11,69,043,34,12,76,332,35*74
$GPGSV,3,2,12,19,12,074,21,20,46,130,29,24,24,210,32,25,43,316,23*7E
$GPGSV,3,3,12,28,04,324,,29,18,280,23,46,49,200,,48,50,193,30*74
$GPGLL,3342.86746,N,11750.42531,W,221523.00,A,A*70

$GPRMC,221524.00,A,3342.86761,N,11750.42519,W,0.553,,180324,,,A*6E

$GPVTG,,T,,M,0.553,N,1.025,K,A*26
$GPGGA,221524.00,3342.86761,N,11750.42519,W,1,09,0.87,27.1,M,-32.9,M,,*5A
$GPGSA,A,3,12,11,20,25,06,24,05,29,19,,,,1.60,0.87,1.34*0C
$GPGSV,3,1,12,05,22,165,31,06,31,041,24,11,69,043,35,12,76,332,36*71
$GPGSV,3,2,12,19,12,074,19,20,46,130,31,24,24,210,32,25,43,316,23*7C
$GPGSV,3,3,12,28,04,324,,29,18,280,26,46,49,200,27,48,50,193,28*7D
$GPGLL,3342.86761,N,11750.42519,W,221524.00,A,A*78

$GPRMC,221525.00,A,3342.86745,N,11750.42520,W,0.948,,180324,,,A*65

$GPVTG,,T,,M,0.948,N,1.755,K,A*20
$GPGGA,221525.00,3342.86745,N,11750.42520,W,1,09,0.87,27.1,M,-32.9,M,,*57
$GPGSA,A,3,12,11,20,25,06,24,05,29,19,,,,1.60,0.87,1.34*0C
$GPGSV,3,1,12,05,22,165,31,06,31,041,23,11,69,043,35,12,76,332,37*77
$GPGSV,3,2,12,19,12,074,16,20,46,130,31,24,24,210,32,25,43,316,23*73
$GPGSV,3,3,12,28,04,324,,29,18,280,25,46,49,200,27,48,50,193,*74
$GPGLL,3342.86745,N,11750.42520,W,221525.00,A,A*75

$GPRMC,221526.00,A,3342.86681,N,11750.42499,W,2.998,128.79,180324,,,A*78

$GPVTG,128.79,T,,M,2.998,N,5.552,K,A*35
$GPGGA,221526.00,3342.86681,N,11750.42499,W,1,09,0.87,27.2,M,-32.9,M,,*5D
$GPGSA,A,3,12,11,20,25,06,24,05,29,19,,,,1.60,0.87,1.34*0C
$GPGSV,3,1,12,05,22,165,30,06,31,041,21,11,69,043,35,12,76,332,38*7B
$GPGSV,3,2,12,19,12,074,29,20,46,130,35,24,24,210,24,25,43,316,31*7F
$GPGSV,3,3,12,28,04,324,,29,18,280,24,46,49,200,32,48,50,193,30*72
$GPGLL,3342.86681,N,11750.42499,W,221526.00,A,A*7C

$GPRMC,221527.00,A,3342.86587,N,11750.42427,W,4.759,140.90,180324,,,A*75
$GPVTG,140.90,T,,M,4.759,N,8.813,K,A*3C

$GPGGA,221527.00,3342.86587,N,11750.42427,W,1,09,0.87,26.6,M,-32.9,M,,*59
$GPGSA,A,3,12,11,20,25,06,24,05,29,19,,,,1.60,0.87,1.34*0C
$GPGSV,3,1,12,05,22,165,30,06,31,041,20,11,69,043,37,12,76,332,40*77
$GPGSV,3,2,12,19,12,074,28,20,46,130,38,24,24,210,23,25,43,316,26*72
$GPGSV,3,3,12,28,04,324,,29,18,280,25,46,49,200,27,48,50,193,28*7E
$GPGLL,3342.86587,N,11750.42427,W,221527.00,A,A*7D

$GPRMC,221528.00,A,3342.86472,N,11750.42334,W,5.043,143.68,180324,,,A*7D
$GPVTG,143.68,T,,M,5.043,N,9.339,K,A*37

$GPGGA,221528.00,3342.86472,N,11750.42334,W,1,09,0.87,26.7,M,-32.9,M,,*59
$GPGSA,A,3,12,11,20,25,06,24,05,29,19,,,,1.60,0.87,1.34*0C
$GPGSV,3,1,12,05,22,165,34,06,31,041,22,11,69,043,37,12,76,332,40*71
$GPGSV,3,2,12,19,12,074,29,20,46,130,38,24,24,210,21,25,43,316,36*70
$GPGSV,3,3,12,28,04,324,,29,18,280,22,46,49,200,29,48,50,193,28*77
$GPGLL,3342.86472,N,11750.42334,W,221528.00,A,A*7C

$GPRMC,221529.00,A,3342.86320,N,11750.42260,W,6.041,153.02,180324,,,A*70
$GPVTG,153.02,T,,M,6.041,N,11.188,K,A*0A

$GPGGA,221529.00,3342.86320,N,11750.42260,W,1,09,0.87,26.7,M,-32.9,M,,*58
$GPGSA,A,3,12,11,20,25,06,24,05,29,19,,,,1.60,0.87,1.34*0C
$GPGSV,3,1,12,05,22,165,34,06,31,041,24,11,69,043,39,12,76,332,40*79
$GPGSV,3,2,12,19,12,074,20,20,46,130,35,24,24,210,22,25,43,316,31*70
$GPGSV,3,3,12,28,04,324,,29,18,280,21,46,49,200,29,48,50,193,27*7B
$GPGLL,3342.86320,N,11750.42260,W,221529.00,A,A*7D

$GPRMC,221530.00,A,3342.86152,N,11750.42259,W,6.464,173.42,180324,,,A*70
$GPVTG,173.42,T,,M,6.464,N,11.971,K,A*01

$GPGGA,221530.00,3342.86152,N,11750.42259,W,1,09,0.87,26.4,M,-32.9,M,,*5E
$GPGSA,A,3,12,11,20,25,06,24,05,29,19,,,,1.60,0.87,1.34*0C
$GPGSV,3,1,12,05,22,165,28,06,31,041,35,11,69,043,35,12,76,332,40*78
$GPGSV,3,2,12,19,12,074,28,20,46,130,35,24,24,210,23,25,43,316,34*7C
$GPGSV,3,3,12,28,04,324,,29,18,280,17,46,49,200,29,48,50,193,27*7E
$GPGLL,3342.86152,N,11750.42259,W,221530.00,A,A*78

$GPRMC,221531.00,A,3342.85967,N,11750.42350,W,7.688,197.58,180324,,,A*74

$GPVTG,197.58,T,,M,7.688,N,14.237,K,A*0D
$GPGGA,221531.00,3342.85967,N,11750.42350,W,1,09,0.87,26.5,M,-32.9,M,,*5B
$GPGSA,A,3,12,11,20,25,06,24,05,29,19,,,,1.60,0.87,1.34*0C
$GPGSV,3,1,12,05,22,165,36,06,31,041,35,11,69,043,32,12,76,332,36*71
$GPGSV,3,2,12,19,12,074,14,20,46,130,35,24,24,210,31,25,43,316,25*70
$GPGSV,3,3,12,28,04,324,,29,18,280,16,46,49,200,27,48,50,193,32*75
$GPGLL,3342.85967,N,11750.42350,W,221531.00,A,A*7C

$GPRMC,221532.00,A,3342.85767,N,11750.42533,W,9.710,214.40,180324,,,A*75
$GPVTG,214.40,T,,M,9.710,N,17.983,K,A*05

$GPGGA,221532.00,3342.85767,N,11750.42533,W,1,09,0.87,26.3,M,-32.9,M,,*53
$GPGSA,A,3,12,11,20,25,06,24,05,29,19,,,,1.60,0.87,1.34*0C
$GPGSV,3,1,12,05,22,165,28,06,30,041,25,11,69,043,33,12,76,332,36*7F
$GPGSV,3,2,12,19,12,074,29,20,46,130,35,24,24,210,30,25,43,316,31*7A
$GPGSV,3,3,12,28,04,324,,29,18,280,14,46,49,200,34,48,50,193,32*75
$GPGLL,3342.85767,N,11750.42533,W,221532.00,A,A*72

$GPRMC,221533.00,A,3342.85520,N,11750.42789,W,12.026,220.97,180324,,,A*43

$GPVTG,220.97,T,,M,12.026,N,22.272,K,A*33
$GPGGA,221533.00,3342.85520,N,11750.42789,W,1,09,0.87,26.4,M,-32.9,M,,*57
$GPGSA,A,3,12,11,20,25,06,24,05,29,19,,,,1.60,0.87,1.34*0C
$GPGSV,3,1,12,05,22,165,35,06,30,041,25,11,69,043,34,12,76,332,36*74
$GPGSV,3,2,12,19,12,074,30,20,46,130,32,24,24,210,29,25,43,316,31*7D
$GPGSV,3,3,12,28,04,324,,29,18,280,11,46,49,200,29,48,50,193,34*7A
$GPGLL,3342.85520,N,11750.42789,W,221533.00,A,A*71

$GPRMC,221534.00,A,3342.85249,N,11750.43093,W,13.624,221.89,180324,,,A*4A
$GPVTG,221.89,T,,M,13.624,N,25.232,K,A*3B

$GPGGA,221534.00,3342.85249,N,11750.43093,W,1,08,1.07,26.2,M,-32.9,M,,*5B
$GPGSA,A,3,12,11,20,25,06,24,05,19,,,,,1.92,1.07,1.59*08
$GPGSV,3,1,12,05,22,165,36,06,30,041,25,11,69,043,33,12,76,332,37*71
$GPGSV,3,2,12,19,12,074,29,20,46,130,33,24,24,210,29,25,43,316,30*75
$GPGSV,3,3,12,28,04,324,,29,18,280,09,46,49,200,29,48,50,193,35*72
$GPGLL,3342.85249,N,11750.43093,W,221534.00,A,A*73

$GPRMC,221535.00,A,3342.84943,N,11750.43420,W,14.995,221.25,180324,,,A*43
$GPVTG,221.25,T,,M,14.995,N,27.770,K,A*3E

$GPGGA,221535.00,3342.84943,N,11750.43420,W,1,08,1.07,26.2,M,-32.9,M,,*56
$GPGSA,A,3,12,11,20,25,06,24,05,19,,,,,1.92,1.07,1.59*08
$GPGSV,3,1,12,05,22,165,36,06,30,041,24,11,69,043,34,12,76,332,36*76
$GPGSV,3,2,12,19,12,074,28,20,46,130,33,24,24,210,29,25,43,316,29*7C
$GPGSV,3,3,12,28,04,324,,29,18,280,08,46,49,200,30,48,50,193,34*7A
$GPGLL,3342.84943,N,11750.43420,W,221535.00,A,A*7E

$GPRMC,221536.00,A,3342.84609,N,11750.43757,W,16.145,220.36,180324,,,A*46
$GPVTG,220.36,T,,M,16.145,N,29.900,K,A*3D

$GPGGA,221536.00,3342.84609,N,11750.43757,W,1,08,1.07,26.3,M,-32.9,M,,*56
$GPGSA,A,3,12,11,20,25,06,24,05,19,,,,,1.92,1.07,1.59*08
$GPGSV,3,1,12,05,22,165,27,06,30,041,24,11,69,043,34,12,76,332,37*77
$GPGSV,3,2,12,19,12,074,32,20,46,130,32,24,24,210,29,25,43,316,30*7E
$GPGSV,3,3,12,28,04,324,,29,18,280,08,46,49,200,35,48,50,193,33*78
$GPGLL,3342.84609,N,11750.43757,W,221536.00,A,A*7F

$GPRMC,221537.00,A,3342.84262,N,11750.44106,W,16.236,220.04,180324,,,A*4D
$GPVTG,220.04,T,,M,16.236,N,30.070,K,A*3D

$GPGGA,221537.00,3342.84262,N,11750.44106,W,1,08,1.07,26.3,M,-32.9,M,,*5B
$GPGSA,A,3,12,11,20,25,06,24,05,19,,,,,1.92,1.07,1.59*08
$GPGSV,3,1,12,05,22,165,35,06,30,041,25,11,69,043,33,12,76,332,37*72
$GPGSV,3,2,12,19,12,074,32,20,46,130,31,24,24,210,29,25,43,316,31*7C
$GPGSV,3,3,12,28,04,324,,29,18,280,08,46,49,200,33,48,50,193,33*7E
$GPGLL,3342.84262,N,11750.44106,W,221537.00,A,A*72

$GPRMC,221538.00,A,3342.83914,N,11750.44454,W,16.060,219.44,180324,,,A*42
$GPVTG,219.44,T,,M,16.060,N,29.743,K,A*3D
$GPGGA,221538.00,3342.83914,N,11750.44454,W,1,08,1.07,26.1,M,-32.9,M,,*59

$GPGSA,A,3,12,11,20,25,06,24,05,19,,,,,1.92,1.07,1.59*08
$GPGSV,3,1,12,05,22,165,33,06,30,041,26,11,69,043,33,12,76,332,37*77
$GPGSV,3,2,12,19,12,074,31,20,46,130,31,24,24,210,28,25,43,316,33*7C
$GPGSV,3,3,12,28,04,324,,29,18,280,06,46,49,200,34,48,50,193,32*76
$GPGLL,3342.83914,N,11750.44454,W,221538.00,A,A*72

$GPRMC,221539.00,A,3342.83580,N,11750.44789,W,15.462,220.45,180324,,,A*4F
$GPVTG,220.45,T,,M,15.462,N,28.635,K,A*32

$GPGGA,221539.00,3342.83580,N,11750.44789,W,1,08,1.07,26.0,M,-32.9,M,,*5B
$GPGSA,A,3,12,11,20,25,06,24,05,19,,,,,1.92,1.07,1.59*08
$GPGSV,3,1,12,05,22,165,33,06,30,041,25,11,69,043,34,12,76,332,37*73
$GPGSV,3,2,12,19,12,074,24,20,46,130,31,24,24,210,28,25,43,316,29*73
$GPGSV,3,3,12,28,04,324,,29,18,280,06,46,49,200,35,48,50,193,31*74
$GPGLL,3342.83580,N,11750.44789,W,221539.00,A,A*71

$GPRMC,221540.00,A,3342.83287,N,11750.45106,W,13.618,223.38,180324,,,A*41

$GPVTG,223.38,T,,M,13.618,N,25.220,K,A*3F
$GPGGA,221540.00,3342.83287,N,11750.45106,W,1,08,1.07,26.1,M,-32.9,M,,*54
$GPGSA,A,3,12,11,20,25,06,24,05,19,,,,,1.92,1.07,1.59*08
$GPGSV,3,1,12,05,22,165,32,06,30,041,24,11,69,043,35,12,76,332,33*76
$GPGSV,3,2,12,19,12,074,24,20,46,130,32,24,24,210,28,25,43,316,27*7E
$GPGSV,3,3,12,28,04,324,,29,18,280,06,46,49,200,31,48,50,193,32*73
$GPGLL,3342.83287,N,11750.45106,W,221540.00,A,A*7F

$GPRMC,221541.00,A,3342.83045,N,11750.45393,W,11.736,225.08,180324,,,A*48
$GPVTG,225.08,T,,M,11.736,N,21.735,K,A*30

$GPGGA,221541.00,3342.83045,N,11750.45393,W,1,09,0.87,25.9,M,-32.9,M,,*54
$GPGSA,A,3,12,11,20,25,06,24,05,29,19,,,,1.60,0.87,1.34*0C
$GPGSV,3,1,12,05,22,165,27,06,30,041,22,11,69,043,34,12,76,332,35*73
$GPGSV,3,2,12,19,12,074,24,20,46,130,33,24,24,210,28,25,43,316,27*7F
$GPGSV,3,3,12,28,04,324,,29,18,280,27,46,49,200,37,48,50,193,31*75
$GPGLL,3342.83045,N,11750.45393,W,221541.00,A,A*7C

$GPRMC,221542.00,A,3342.82843,N,11750.45625,W,9.323,224.66,180324,,,A*7C
$GPVTG,224.66,T,,M,9.323,N,17.267,K,A*07

$GPGGA,221542.00,3342.82843,N,11750.45625,W,1,09,0.87,25.8,M,-32.9,M,,*51
$GPGSA,A,3,12,11,20,25,06,24,05,29,19,,,,1.60,0.87,1.34*0C
$GPGSV,3,1,12,05,22,165,36,06,30,041,21,11,69,043,33,12,76,332,27*74
$GPGSV,3,2,12,19,12,074,24,20,46,130,31,24,24,210,29,25,43,316,33*79
$GPGSV,3,3,12,28,04,324,,29,18,280,25,46,49,200,38,48,50,193,30*79
$GPGLL,3342.82843,N,11750.45625,W,221542.00,A,A*78

$GPRMC,221543.00,A,3342.82691,N,11750.45804,W,6.828,225.19,180324,,,A*77
$GPVTG,225.19,T,,M,6.828,N,12.645,K,A*00

$GPGGA,221543.00,3342.82691,N,11750.45804,W,1,09,0.87,25.6,M,-32.9,M,,*52
$GPGSA,A,3,12,11,20,25,06,24,05,29,19,,,,1.60,0.87,1.34*0C
$GPGSV,3,1,12,05,22,165,36,06,30,041,19,11,69,043,33,12,76,332,28*70
$GPGSV,3,2,12,19,12,074,22,20,46,130,31,24,24,210,29,25,43,316,32*7E
$GPGSV,3,3,12,28,04,324,,29,18,280,25,46,49,200,39,48,50,193,30*78
$GPGLL,3342.82691,N,11750.45804,W,221543.00,A,A*75

$GPRMC,221544.00,A,3342.82615,N,11750.45889,W,2.429,225.33,180324,,,A*78
$GPVTG,225.33,T,,M,2.429,N,4.498,K,A*34

$GPGGA,221544.00,3342.82615,N,11750.45889,W,1,09,0.87,25.6,M,-32.9,M,,*5C
$GPGSA,A,3,12,11,20,25,06,24,05,29,19,,,,1.60,0.87,1.34*0C
$GPGSV,3,1,12,05,22,165,36,06,30,041,18,11,69,043,34,12,76,332,28*76
$GPGSV,3,2,12,19,12,074,20,20,46,130,31,24,24,210,29,25,43,316,23*7C
$GPGSV,3,3,12,28,04,324,,29,18,280,25,46,49,200,38,48,50,193,30*79
$GPGLL,3342.82615,N,11750.45889,W,221544.00,A,A*7B

$GPRMC,221545.00,A,3342.82597,N,11750.45917,W,0.310,,180324,,,A*62
$GPVTG,,T,,M,0.310,N,0.575,K,A*26

$GPGGA,221545.00,3342.82597,N,11750.45917,W,1,09,0.87,25.7,M,-32.9,M,,*53
$GPGSA,A,3,12,11,20,25,06,24,05,29,19,,,,1.60,0.87,1.34*0C
$GPGSV,3,1,12,05,22,165,36,06,30,041,18,11,69,043,35,12,76,332,31*7F
$GPGSV,3,2,12,19,12,074,21,20,46,130,32,24,24,210,29,25,43,316,23*7E
$GPGSV,3,3,12,28,04,324,,29,18,280,25,46,49,200,39,48,50,193,30*78
$GPGLL,3342.82597,N,11750.45917,W,221545.00,A,A*75

$GPRMC,221546.00,A,3342.82598,N,11750.45925,W,0.075,,180324,,,A*6F
$GPVTG,,T,,M,0.075,N,0.140,K,A*24
$GPGGA,221546.00,3342.82598,N,11750.45925,W,1,09,0.87,25.6,M,-32.9,M,,*5F
$GPGSA,A,3,12,11,20,25,06,24,05,29,19,,,,1.60,0.87,1.34*0C
$GPGSV,3,1,12,05,22,165,36,06,30,041,19,11,69,043,35,12,76,332,33*7C
$GPGSV,3,2,12,19,12,074,21,20,46,130,32,24,24,210,29,25,43,316,23*7E
$GPGSV,3,3,12,28,04,324,,29,18,280,25,46,49,200,39,48,50,193,30*78
$GPGLL,3342.82598,N,11750.45925,W,221546.00,A,A*78

$GPRMC,221547.00,A,3342.82593,N,11750.45933,W,0.166,,180324,,,A*61
$GPVTG,,T,,M,0.166,N,0.307,K,A*26
$GPGGA,221547.00,3342.82593,N,11750.45933,W,1,09,0.87,25.8,M,-32.9,M,,*5C
$GPGSA,A,3,12,11,20,25,06,24,05,29,19,,,,1.60,0.87,1.34*0C
$GPGSV,3,1,12,05,22,165,36,06,30,041,19,11,69,043,35,12,76,332,33*7C
$GPGSV,3,2,12,19,12,074,22,20,46,130,33,24,24,210,30,25,43,316,23*74
$GPGSV,3,3,12,28,04,324,,29,18,280,25,46,49,200,39,48,50,193,31*79

$GPGLL,3342.82593,N,11750.45933,W,221547.00,A,A*75

$GPRMC,221548.00,A,3342.82593,N,11750.45938,W,0.034,,180324,,,A*63
$GPVTG,,T,,M,0.034,N,0.063,K,A*21
$GPGGA,221548.00,3342.82593,N,11750.45938,W,1,09,0.87,25.7,M,-32.9,M,,*57

$GPGSA,A,3,12,11,20,25,06,24,05,29,19,,,,1.60,0.87,1.34*0C
$GPGSV,3,1,12,05,22,165,36,06,30,041,19,11,69,043,35,12,76,332,33*7C
$GPGSV,3,2,12,19,12,074,22,20,46,130,32,24,24,210,29,25,43,316,24*7A
$GPGSV,3,3,12,28,04,324,,29,18,280,25,46,49,200,39,48,50,193,31*79
$GPGLL,3342.82593,N,11750.45938,W,221548.00,A,A*71

$GPRMC,221549.00,A,3342.82585,N,11750.45947,W,0.254,,180324,,,A*69
$GPVTG,,T,,M,0.254,N,0.471,K,A*22

$GPGGA,221549.00,3342.82585,N,11750.45947,W,1,09,0.87,25.7,M,-32.9,M,,*59
$GPGSA,A,3,12,11,20,25,06,24,05,29,19,,,,1.60,0.87,1.34*0C
$GPGSV,3,1,12,05,22,165,36,06,30,041,20,11,69,043,35,12,76,332,33*76
$GPGSV,3,2,12,19,12,074,22,20,46,130,32,24,24,210,29,25,43,316,24*7A
$GPGSV,3,3,12,28,04,324,,29,18,280,25,46,49,200,39,48,50,193,31*79
$GPGLL,3342.82585,N,11750.45947,W,221549.00,A,A*7F

$GPRMC,221550.00,A,3342.82577,N,11750.45962,W,0.448,,180324,,,A*60
$GPVTG,,T,,M,0.448,N,0.830,K,A*20

$GPGGA,221550.00,3342.82577,N,11750.45962,W,1,09,0.87,25.7,M,-32.9,M,,*5B
$GPGSA,A,3,12,11,20,25,06,24,05,29,19,,,,1.60,0.87,1.34*0C
$GPGSV,3,1,12,05,22,165,36,06,30,041,20,11,69,043,35,12,76,332,33*76
$GPGSV,3,2,12,19,12,074,22,20,46,130,32,24,23,210,29,25,43,316,25*7C
$GPGSV,3,3,12,28,04,324,,29,18,280,25,46,49,200,38,48,50,193,31*78
$GPGLL,3342.82577,N,11750.45962,W,221550.00,A,A*7D

$GPRMC,221551.00,A,3342.82584,N,11750.45965,W,0.012,,180324,,,A*61
$GPVTG,,T,,M,0.012,N,0.022,K,A*20

$GPGGA,221551.00,3342.82584,N,11750.45965,W,1,09,0.87,25.3,M,-32.9,M,,*55
$GPGSA,A,3,12,11,20,25,06,24,05,29,19,,,,1.60,0.87,1.34*0C
$GPGSV,3,1,12,05,22,165,36,06,30,041,20,11,69,043,35,12,76,332,34*71
$GPGSV,3,2,12,19,12,074,19,20,46,130,31,24,23,210,29,25,43,316,24*76
$GPGSV,3,3,12,28,04,324,,29,18,280,26,46,49,200,38,48,50,193,31*7B
$GPGLL,3342.82584,N,11750.45965,W,221551.00,A,A*77

$GPRMC,221552.00,A,3342.82570,N,11750.45970,W,0.183,,180324,,,A*64
$GPVTG,,T,,M,0.183,N,0.339,K,A*20

$GPGGA,221552.00,3342.82570,N,11750.45970,W,1,09,0.87,25.8,M,-32.9,M,,*52
$GPGSA,A,3,12,11,20,25,06,24,05,29,19,,,,1.60,0.87,1.34*0C
$GPGSV,3,1,12,05,22,165,36,06,30,041,18,11,69,043,35,12,76,332,35*7B
$GPGSV,3,2,12,19,12,074,16,20,46,130,31,24,23,210,30,25,43,316,23*76
$GPGSV,3,3,12,28,04,324,,29,18,280,26,46,49,200,38,48,50,193,31*7B
$GPGLL,3342.82570,N,11750.45970,W,221552.00,A,A*7B

$GPRMC,221553.00,A,3342.82558,N,11750.45984,W,0.675,,180324,,,A*6A
$GPVTG,,T,,M,0.675,N,1.250,K,A*21
$GPGGA,221553.00,3342.82558,N,11750.45984,W,1,09,0.87,25.8,M,-32.9,M,,*52
$GPGSA,A,3,12,11,20,25,06,24,05,29,19,,,,1.60,0.87,1.34*0C

$GPGSV,3,1,12,05,22,165,37,06,30,041,20,11,69,043,34,12,76,332,34*71
$GPGSV,3,2,12,19,12,074,18,20,46,130,30,24,23,210,31,25,43,316,25*7E
$GPGSV,3,3,12,28,04,324,,29,18,280,26,46,49,200,38,48,50,193,31*7B
$GPGLL,3342.82558,N,11750.45984,W,221553.00,A,A*7B

$GPRMC,221554.00,A,3342.82534,N,11750.46052,W,2.994,234.50,180324,,,A*7A
$GPVTG,234.50,T,,M,2.994,N,5.545,K,A*3A

$GPGGA,221554.00,3342.82534,N,11750.46052,W,1,09,0.87,25.0,M,-32.9,M,,*56
$GPGSA,A,3,12,11,20,25,06,24,05,29,19,,,,1.60,0.87,1.34*0C
$GPGSV,3,1,12,05,22,165,37,06,30,041,25,11,69,043,33,12,76,332,35*72
$GPGSV,3,2,12,19,12,074,20,20,46,130,34,24,23,210,32,25,43,316,26*71
$GPGSV,3,3,12,28,04,324,,29,18,280,25,46,49,200,38,48,50,193,31*78
$GPGLL,3342.82534,N,11750.46052,W,221554.00,A,A*77

$GPRMC,221555.00,A,3342.82497,N,11750.46201,W,5.053,246.84,180324,,,A*7E
$GPVTG,246.84,T,,M,5.053,N,9.359,K,A*34

$GPGGA,221555.00,3342.82497,N,11750.46201,W,1,09,0.87,24.6,M,-32.9,M,,*5C
$GPGSA,A,3,12,11,20,25,06,24,05,29,19,,,,1.60,0.87,1.34*0C
$GPGSV,3,1,12,05,22,165,30,06,30,041,24,11,69,043,34,12,76,332,34*72
$GPGSV,3,2,12,19,12,074,18,20,46,130,37,24,23,210,32,25,43,316,25*7A
$GPGSV,3,3,12,28,04,324,,29,18,281,26,46,49,200,33,48,50,193,29*78
$GPGLL,3342.82497,N,11750.46201,W,221555.00,A,A*7A

$GPRMC,221556.00,A,3342.82487,N,11750.46438,W,7.674,263.48,180324,,,A*76
$GPVTG,263.48,T,,M,7.674,N,14.213,K,A*01

$GPGGA,221556.00,3342.82487,N,11750.46438,W,1,09,0.87,24.3,M,-32.9,M,,*57
$GPGSA,A,3,12,11,20,25,06,24,05,29,19,,,,1.60,0.87,1.34*0C
$GPGSV,3,1,12,05,22,165,30,06,30,041,23,11,69,043,35,12,76,332,32*72
$GPGSV,3,2,12,19,12,074,16,20,46,130,37,24,23,210,27,25,43,316,26*73
$GPGSV,3,3,12,28,04,324,,29,18,281,31,46,49,200,29,48,50,193,28*74
$GPGLL,3342.82487,N,11750.46438,W,221556.00,A,A*74

$GPRMC,221557.00,A,3342.82532,N,11750.46779,W,11.499,279.66,180324,,,A*4F

$GPVTG,279.66,T,,M,11.499,N,21.297,K,A*3A
$GPGGA,221557.00,3342.82532,N,11750.46779,W,1,09,0.87,24.2,M,-32.9,M,,*5E
$GPGSA,A,3,12,11,20,25,06,24,05,29,19,,,,1.60,0.87,1.34*0C
$GPGSV,3,1,12,05,22,165,30,06,30,041,24,11,69,043,34,12,76,332,37*71
$GPGSV,3,2,12,19,12,074,15,20,46,130,31,24,23,210,31,25,43,316,36*70
$GPGSV,3,3,12,28,04,324,,29,18,281,32,46,49,200,36,48,50,193,28*79
$GPGLL,3342.82532,N,11750.46779,W,221557.00,A,A*7C

$GPRMC,221558.00,A,3342.82654,N,11750.47235,W,15.057,291.05,180324,,,A*4E

$GPVTG,291.05,T,,M,15.057,N,27.885,K,A*34
$GPGGA,221558.00,3342.82654,N,11750.47235,W,1,09,0.87,24.9,M,-32.9,M,,*55
$GPGSA,A,3,12,11,20,25,06,24,05,29,19,,,,1.60,0.87,1.34*0C
$GPGSV,3,1,12,05,22,165,25,06,30,041,22,11,69,043,35,12,76,332,38*7D
$GPGSV,3,2,12,19,12,074,28,20,46,130,35,24,23,210,30,25,43,316,28*74
$GPGSV,3,3,12,28,04,324,,29,18,281,32,46,49,200,36,48,50,193,26*77
$GPGLL,3342.82654,N,11750.47235,W,221558.00,A,A*7C

$GPRMC,221559.00,A,3342.82868,N,11750.47727,W,17.672,300.62,180324,,,A*43
$GPVTG,300.62,T,,M,17.672,N,32.728,K,A*33
$GPGGA,221559.00,3342.82868,N,11750.47727,W,1,09,0.87,25.0,M,-32.9,M,,*5B
$GPGSA,A,3,12,11,20,25,06,24,05,29,19,,,,1.60,0.87,1.34*0C

$GPGSV,3,1,12,05,22,165,35,06,30,041,25,11,69,043,32,12,76,332,38*7C
$GPGSV,3,2,12,19,12,074,24,20,46,130,23,24,23,210,30,25,43,316,34*72
$GPGSV,3,3,12,28,04,324,,29,18,281,31,46,49,200,27,48,50,193,*70
$GPGLL,3342.82868,N,11750.47727,W,221559.00,A,A*7A

$GPRMC,221600.00,A,3342.83162,N,11750.48277,W,20.314,303.31,180324,,,A*45
$GPVTG,303.31,T,,M,20.314,N,37.621,K,A*3A
$GPGGA,221600.00,3342.83162,N,11750.48277,W,1,09,0.87,24.7,M,-32.9,M,,*5F
$GPGSA,A,3,12,11,20,25,06,24,05,29,19,,,,1.60,0.87,1.34*0C

$GPGSV,3,1,12,05,22,165,37,06,30,041,28,11,69,043,33,12,76,332,38*72
$GPGSV,3,2,12,19,12,074,22,20,46,130,25,24,23,210,23,25,43,316,34*70
$GPGSV,3,3,12,28,04,324,,29,18,281,31,46,49,200,,48,50,193,33*75
$GPGLL,3342.83162,N,11750.48277,W,221600.00,A,A*78

$GPRMC,221601.00,A,3342.83515,N,11750.48849,W,21.863,306.72,180324,,,A*4F
$GPVTG,306.72,T,,M,21.863,N,40.490,K,A*3A

$GPGGA,221601.00,3342.83515,N,11750.48849,W,1,09,0.87,24.6,M,-32.9,M,,*5C
$GPGSA,A,3,12,11,20,25,06,24,05,29,19,,,,1.60,0.87,1.34*0C
$GPGSV,3,1,12,05,22,165,36,06,30,041,25,11,69,043,32,12,76,332,38*7F
$GPGSV,3,2,12,19,12,074,17,20,46,130,24,24,23,210,27,25,43,316,33*74
$GPGSV,3,3,12,28,04,324,,29,18,281,32,46,49,200,30,48,50,193,34*72
$GPGLL,3342.83515,N,11750.48849,W,221601.00,A,A*7A

$GPRMC,221602.00,A,3342.83871,N,11750.49393,W,20.271,308.62,180324,,,A*49
$GPVTG,308.62,T,,M,20.271,N,37.542,K,A*33

$GPGGA,221602.00,3342.83871,N,11750.49393,W,1,09,0.87,24.5,M,-32.9,M,,*5E
$GPGSA,A,3,12,11,20,25,06,24,05,29,19,,,,1.60,0.87,1.34*0C
$GPGSV,3,1,12,05,22,165,34,06,30,041,26,11,69,043,31,12,76,332,39*7C
$GPGSV,3,2,12,19,12,074,17,20,46,130,24,24,23,210,29,25,43,316,33*7A
$GPGSV,3,3,12,28,04,324,,29,18,281,29,46,49,200,31,48,50,193,35*78
$GPGLL,3342.83871,N,11750.49393,W,221602.00,A,A*7B

$GPRMC,221603.00,A,3342.84181,N,11750.49865,W,16.912,309.12,180324,,,A*46
$GPVTG,309.12,T,,M,16.912,N,31.322,K,A*38
$GPGGA,221603.00,3342.84181,N,11750.49865,W,1,09,0.87,24.4,M,-32.9,M,,*5D

$GPGSA,A,3,12,11,20,25,06,24,05,29,19,,,,1.60,0.87,1.34*0C
$GPGSV,3,1,12,05,22,165,33,06,30,041,25,11,69,043,32,12,76,332,39*7B
$GPGSV,3,2,12,19,12,074,19,20,46,130,23,24,23,210,29,25,43,316,33*73
$GPGSV,3,3,12,28,04,324,,29,18,281,33,46,49,200,31,48,50,193,35*73
$GPGLL,3342.84181,N,11750.49865,W,221603.00,A,A*79

$GPRMC,221604.00,A,3342.84422,N,11750.50231,W,13.130,308.30,180324,,,A*42
$GPVTG,308.30,T,,M,13.130,N,24.317,K,A*36
$GPGGA,221604.00,3342.84422,N,11750.50231,W,1,09,0.87,24.6,M,-32.9,M,,*57
$GPGSA,A,3,12,11,20,25,06,24,05,29,19,,,,1.60,0.87,1.34*0C

$GPGSV,3,1,12,05,22,165,33,06,30,041,23,11,69,043,32,12,76,332,39*7D
$GPGSV,3,2,12,19,12,074,18,20,46,130,25,24,23,210,29,25,43,316,33*74
$GPGSV,3,3,12,28,04,324,,29,18,281,28,46,49,200,31,48,50,193,36*7A
$GPGLL,3342.84422,N,11750.50231,W,221604.00,A,A*71

$GPRMC,221605.00,A,3342.84594,N,11750.50485,W,8.764,308.24,180324,,,A*7E
$GPVTG,308.24,T,,M,8.764,N,16.230,K,A*0B

$GPGGA,221605.00,3342.84594,N,11750.50485,W,1,09,0.87,24.6,M,-32.9,M,,*53
$GPGSA,A,3,12,11,20,25,06,24,05,29,19,,,,1.60,0.87,1.34*0C
$GPGSV,3,1,12,05,22,165,34,06,30,041,25,11,69,043,32,12,76,332,39*7C
$GPGSV,3,2,12,19,12,074,19,20,46,130,26,24,23,210,28,25,43,316,33*77
$GPGSV,3,3,12,28,04,324,,29,18,281,29,46,49,200,31,48,50,193,36*7B
$GPGLL,3342.84594,N,11750.50485,W,221605.00,A,A*75

$GPRMC,221606.00,A,3342.84701,N,11750.50649,W,5.296,308.85,180324,,,A*7F
$GPVTG,308.85,T,,M,5.296,N,9.809,K,A*3B
$GPGGA,221606.00,3342.84701,N,11750.50649,W,1,09,0.87,24.8,M,-32.9,M,,*52
$GPGSA,A,3,12,11,20,25,06,24,05,29,19,,,,1.60,0.87,1.34*0C

$GPGSV,3,1,12,05,22,165,34,06,30,041,24,11,69,043,32,12,76,332,39*7D
$GPGSV,3,2,12,19,12,074,21,20,46,130,27,24,23,210,28,25,43,316,34*7A
$GPGSV,3,3,12,28,04,324,,29,18,281,29,46,49,200,31,48,50,193,36*7B
$GPGLL,3342.84701,N,11750.50649,W,221606.00,A,A*7A

$GPRMC,221607.00,A,3342.84762,N,11750.50746,W,2.850,309.02,180324,,,A*7C
$GPVTG,309.02,T,,M,2.850,N,5.278,K,A*32
$GPGGA,221607.00,3342.84762,N,11750.50746,W,1,09,0.87,24.7,M,-32.9,M,,*57
$GPGSA,A,3,12,11,20,25,06,24,05,29,19,,,,1.60,0.87,1.34*0C

$GPGSV,3,1,12,05,22,165,34,06,30,041,24,11,69,043,33,12,76,332,39*7C
$GPGSV,3,2,12,19,12,074,21,20,46,130,26,24,23,210,27,25,43,316,34*74
$GPGSV,3,3,12,28,04,324,,29,18,281,30,46,49,200,31,48,50,193,36*73
$GPGLL,3342.84762,N,11750.50746,W,221607.00,A,A*70

$GPRMC,221608.00,A,3342.84787,N,11750.50765,W,0.251,,180324,,,A*66
$GPVTG,,T,,M,0.251,N,0.465,K,A*22
$GPGGA,221608.00,3342.84787,N,11750.50765,W,1,09,0.87,24.3,M,-32.9,M,,*56

$GPGSA,A,3,12,11,20,25,06,24,05,29,19,,,,1.60,0.87,1.34*0C
$GPGSV,3,1,12,05,22,165,34,06,30,041,23,11,69,043,33,12,76,332,39*7B
$GPGSV,3,2,12,19,12,074,19,20,46,130,25,24,23,210,28,25,43,316,34*73
$GPGSV,3,3,12,28,04,324,,29,18,281,25,46,49,200,31,48,50,193,36*77
$GPGLL,3342.84787,N,11750.50765,W,221608.00,A,A*75

$GPRMC,221609.00,A,3342.84787,N,11750.50766,W,0.115,,180324,,,A*67
$GPVTG,,T,,M,0.115,N,0.212,K,A*27

$GPGGA,221609.00,3342.84787,N,11750.50766,W,1,09,0.87,24.3,M,-32.9,M,,*54
$GPGSA,A,3,12,11,20,25,06,24,05,29,19,,,,1.60,0.87,1.34*0C
$GPGSV,3,1,12,05,22,165,34,06,30,041,24,11,69,043,33,12,76,332,39*7C
$GPGSV,3,2,12,19,12,074,18,20,46,130,24,24,23,210,28,25,43,316,34*73
$GPGSV,3,3,12,28,04,324,,29,18,281,27,46,49,200,32,48,50,193,35*75
$GPGLL,3342.84787,N,11750.50766,W,221609.00,A,A*77

$GPRMC,221610.00,A,3342.84782,N,11750.50774,W,0.104,,180324,,,A*69
$GPVTG,,T,,M,0.104,N,0.193,K,A*2D
$GPGGA,221610.00,3342.84782,N,11750.50774,W,1,09,0.87,24.4,M,-32.9,M,,*5D

$GPGSA,A,3,12,11,20,25,06,24,05,29,19,,,,1.60,0.87,1.34*0C
$GPGSV,3,1,12,05,22,165,34,06,30,041,24,11,69,043,33,12,76,332,39*7C
$GPGSV,3,2,12,19,12,074,16,20,46,130,23,24,23,210,27,25,43,316,34*75
$GPGSV,3,3,12,28,04,324,,29,18,281,27,46,49,200,32,48,50,193,35*75
$GPGLL,3342.84782,N,11750.50774,W,221610.00,A,A*79

$GPRMC,221611.00,A,3342.84777,N,11750.50781,W,0.061,,180324,,,A*6A
$GPVTG,,T,,M,0.061,N,0.112,K,A*26
$GPGGA,221611.00,3342.84777,N,11750.50781,W,1,09,0.87,24.5,M,-32.9,M,,*5D
$GPGSA,A,3,12,11,20,25,06,24,05,29,19,,,,1.59,0.87,1.34*06

$GPGSV,3,1,12,05,22,165,33,06,30,041,24,11,69,043,33,12,76,332,39*7B
$GPGSV,3,2,12,19,12,074,14,20,46,130,24,24,23,210,27,25,43,316,33*77
$GPGSV,3,3,12,28,04,324,,29,18,281,28,46,49,200,32,48,50,193,35*7A
$GPGLL,3342.84777,N,11750.50781,W,221611.00,A,A*78

$GPRMC,221612.00,A,3342.84771,N,11750.50787,W,0.201,,180324,,,A*6D
$GPVTG,,T,,M,0.201,N,0.373,K,A*27

$GPGGA,221612.00,3342.84771,N,11750.50787,W,1,09,0.87,24.7,M,-32.9,M,,*5C
$GPGSA,A,3,12,11,20,25,06,24,05,29,19,,,,1.59,0.87,1.34*06
$GPGSV,3,1,12,05,22,165,33,06,30,041,24,11,69,043,33,12,76,332,39*7B
$GPGSV,3,2,12,19,12,074,12,20,46,130,25,24,23,210,28,25,43,316,33*7F
$GPGSV,3,3,12,28,04,324,,29,18,281,28,46,49,200,32,48,50,193,35*7A
$GPGLL,3342.84771,N,11750.50787,W,221612.00,A,A*7B

$GPRMC,221613.00,A,3342.84774,N,11750.50783,W,0.131,,180324,,,A*6D
$GPVTG,,T,,M,0.131,N,0.243,K,A*25
$GPGGA,221613.00,3342.84774,N,11750.50783,W,1,08,1.04,24.5,M,-32.9,M,,*55
$GPGSA,A,3,12,11,20,25,06,24,05,29,,,,,2.03,1.04,1.75*0D

$GPGSV,3,1,12,05,22,165,33,06,30,041,24,11,69,043,33,12,76,332,39*7B
$GPGSV,3,2,12,19,12,074,09,20,46,130,25,24,23,210,28,25,43,316,33*75
$GPGSV,3,3,12,28,04,324,,29,18,281,28,46,49,200,32,48,50,193,35*7A
$GPGLL,3342.84774,N,11750.50783,W,221613.00,A,A*7B

$GPRMC,221614.00,A,3342.84778,N,11750.50778,W,0.010,,180324,,,A*60
$GPVTG,,T,,M,0.010,N,0.018,K,A*2B

$GPGGA,221614.00,3342.84778,N,11750.50778,W,1,09,0.87,24.3,M,-32.9,M,,*57
$GPGSA,A,3,12,11,20,25,06,24,05,29,19,,,,1.59,0.87,1.34*06
$GPGSV,3,1,12,05,22,165,34,06,30,041,24,11,69,043,33,12,76,332,39*7C
$GPGSV,3,2,12,19,12,074,10,20,46,130,26,24,23,210,28,25,43,316,33*7E
$GPGSV,3,3,12,28,04,324,,29,18,281,28,46,49,200,32,48,50,193,35*7A
$GPGLL,3342.84778,N,11750.50778,W,221614.00,A,A*74

$GPRMC,221615.00,A,3342.84774,N,11750.50783,W,0.116,,180324,,,A*6E
$GPVTG,,T,,M,0.116,N,0.215,K,A*23
$GPGGA,221615.00,3342.84774,N,11750.50783,W,1,09,0.87,24.5,M,-32.9,M,,*58

$GPGSA,A,3,12,11,20,25,06,24,05,29,19,,,,1.59,0.87,1.34*06
$GPGSV,3,1,12,05,23,165,34,06,30,041,24,11,69,043,33,12,76,332,39*7D
$GPGSV,3,2,12,19,12,074,12,20,46,130,26,24,23,210,28,25,43,316,33*7C
$GPGSV,3,3,12,28,04,324,,29,18,281,29,46,49,200,32,48,50,193,35*7B
$GPGLL,3342.84774,N,11750.50783,W,221615.00,A,A*7D

$GPRMC,221616.00,A,3342.84772,N,11750.50787,W,0.092,,180324,,,A*62
$GPVTG,,T,,M,0.092,N,0.170,K,A*2E
$GPGGA,221616.00,3342.84772,N,11750.50787,W,1,09,0.87,24.6,M,-32.9,M,,*5A
$GPGSA,A,3,12,11,20,25,06,24,05,29,19,,,,1.59,0.87,1.34*06

$GPGSV,3,1,12,05,23,165,34,06,30,041,23,11,69,043,33,12,76,332,39*7A
$GPGSV,3,2,12,19,12,074,13,20,46,130,26,24,23,210,28,25,43,316,33*7D
$GPGSV,3,3,12,28,04,324,,29,18,281,29,46,49,200,32,48,50,193,36*78
$GPGLL,3342.84772,N,11750.50787,W,221616.00,A,A*7C

$GPRMC,221617.00,A,3342.84776,N,11750.50781,W,0.036,,180324,,,A*6F
$GPVTG,,T,,M,0.036,N,0.067,K,A*27
$GPGGA,221617.00,3342.84776,N,11750.50781,W,1,09,0.87,24.4,M,-32.9,M,,*5B

$GPGSA,A,3,12,11,20,25,06,24,05,29,19,,,,1.59,0.87,1.34*06
$GPGSV,3,1,12,05,23,165,34,06,30,041,24,11,69,043,33,12,76,332,39*7D
$GPGSV,3,2,12,19,12,074,14,20,46,130,26,24,23,210,28,25,43,316,33*7A
$GPGSV,3,3,12,28,04,324,,29,18,281,29,46,49,200,33,48,50,193,36*79
$GPGLL,3342.84776,N,11750.50781,W,221617.00,A,A*7F

$GPRMC,221618.00,A,3342.84783,N,11750.50770,W,0.058,,180324,,,A*6C
$GPVTG,,T,,M,0.058,N,0.108,K,A*27
$GPGGA,221618.00,3342.84783,N,11750.50770,W,1,09,0.87,24.2,M,-32.9,M,,*56

$GPGSA,A,3,12,11,20,25,06,24,05,29,19,,,,1.59,0.87,1.33*01
$GPGSV,3,1,12,05,23,165,34,06,30,041,24,11,69,043,34,12,76,332,39*7A
$GPGSV,3,2,12,19,12,074,14,20,46,130,26,24,23,210,27,25,43,316,33*75
$GPGSV,3,3,12,28,04,324,,29,18,281,29,46,49,200,33,48,50,193,36*79
$GPGLL,3342.84783,N,11750.50770,W,221618.00,A,A*74

$GPRMC,221619.00,A,3342.84787,N,11750.50761,W,0.169,,180324,,,A*6A
$GPVTG,,T,,M,0.169,N,0.313,K,A*2C

$GPGGA,221619.00,3342.84787,N,11750.50761,W,1,09,0.87,24.0,M,-32.9,M,,*51
$GPGSA,A,3,12,11,20,25,06,24,05,29,19,,,,1.59,0.87,1.33*01
$GPGSV,3,1,12,05,23,165,34,06,30,041,25,11,69,043,34,12,76,332,39*7B
$GPGSV,3,2,12,19,12,074,13,20,46,130,27,24,23,210,27,25,43,316,33*73
$GPGSV,3,3,12,28,04,324,,29,18,281,29,46,49,200,32,48,50,193,36*78
$GPGLL,3342.84787,N,11750.50761,W,221619.00,A,A*71

$GPRMC,221620.00,A,3342.84789,N,11750.50760,W,0.049,,180324,,,A*6C
$GPVTG,,T,,M,0.049,N,0.090,K,A*27

$GPGGA,221620.00,3342.84789,N,11750.50760,W,1,09,0.87,23.8,M,-32.9,M,,*5B
$GPGSA,A,3,12,11,20,25,06,24,05,29,19,,,,1.59,0.87,1.33*01
$GPGSV,3,1,12,05,23,165,34,06,30,041,25,11,69,043,33,12,76,332,39*7C
$GPGSV,3,2,12,19,12,074,12,20,46,130,27,24,23,210,27,25,43,316,33*72
$GPGSV,3,3,12,28,04,324,18,29,18,281,29,46,49,200,32,48,50,193,35*72
$GPGLL,3342.84789,N,11750.50760,W,221620.00,A,A*74

$GPRMC,221621.00,A,3342.84793,N,11750.50759,W,0.047,,180324,,,A*62

$GPVTG,,T,,M,0.047,N,0.087,K,A*2F
$GPGGA,221621.00,3342.84793,N,11750.50759,W,1,09,0.87,23.6,M,-32.9,M,,*55
$GPGSA,A,3,12,11,20,25,06,24,05,29,19,,,,1.59,0.87,1.33*01
$GPGSV,3,1,12,05,23,165,34,06,30,041,25,11,69,042,33,12,76,332,39*7D
$GPGSV,3,2,12,19,12,074,11,20,46,130,25,24,23,210,27,25,43,316,33*73
$GPGSV,3,3,12,28,04,324,18,29,18,281,29,46,49,200,32,48,50,193,35*72
$GPGLL,3342.84793,N,11750.50759,W,221621.00,A,A*74

$GPRMC,221622.00,A,3342.84796,N,11750.50752,W,0.132,,180324,,,A*6C
$GPVTG,,T,,M,0.132,N,0.244,K,A*21

$GPGGA,221622.00,3342.84796,N,11750.50752,W,1,08,1.03,23.4,M,-32.9,M,,*56
$GPGSA,A,3,12,11,20,25,06,24,05,29,,,,,2.03,1.03,1.75*0A
$GPGSV,3,1,12,05,23,165,33,06,30,041,24,11,69,042,33,12,76,332,38*7A
$GPGSV,3,2,12,19,12,074,09,20,46,130,24,24,23,210,26,25,43,316,33*7A
$GPGSV,3,3,12,28,04,324,19,29,18,281,29,46,49,200,31,48,50,193,35*70
$GPGLL,3342.84796,N,11750.50752,W,221622.00,A,A*79

$GPRMC,221623.00,A,3342.84798,N,11750.50748,W,0.237,,180324,,,A*6E
$GPVTG,,T,,M,0.237,N,0.439,K,A*2B
$GPGGA,221623.00,3342.84798,N,11750.50748,W,1,08,1.03,23.3,M,-32.9,M,,*55

$GPGSA,A,3,12,11,20,25,06,24,05,29,,,,,2.03,1.03,1.75*0A
$GPGSV,3,1,12,05,23,165,34,06,30,041,24,11,69,042,33,12,76,332,39*7C
$GPGSV,3,2,12,19,12,074,08,20,46,130,24,24,23,210,26,25,43,316,33*7B
$GPGSV,3,3,12,28,04,324,18,29,18,281,29,46,49,200,32,48,50,193,35*72
$GPGLL,3342.84798,N,11750.50748,W,221623.00,A,A*7D

$GPRMC,221624.00,A,3342.84801,N,11750.50745,W,0.155,,180324,,,A*6C
$GPVTG,,T,,M,0.155,N,0.287,K,A*2F
$GPGGA,221624.00,3342.84801,N,11750.50745,W,1,08,1.03,23.2,M,-32.9,M,,*51

$GPGSA,A,3,12,11,20,25,06,24,05,29,,,,,2.03,1.03,1.75*0A
$GPGSV,3,1,12,05,23,165,34,06,30,041,25,11,69,042,33,12,76,332,38*7C
$GPGSV,3,2,12,19,12,074,08,20,46,130,25,24,23,210,26,25,43,316,33*7A
$GPGSV,3,3,12,28,04,324,18,29,18,281,29,46,49,200,32,48,50,193,35*72
$GPGLL,3342.84801,N,11750.50745,W,221624.00,A,A*78

$GPRMC,221625.00,A,3342.84806,N,11750.50741,W,0.091,,180324,,,A*67
$GPVTG,,T,,M,0.091,N,0.168,K,A*24

$GPGGA,221625.00,3342.84806,N,11750.50741,W,1,08,1.03,23.1,M,-32.9,M,,*50
$GPGSA,A,3,12,11,20,25,06,24,05,29,,,,,2.03,1.03,1.75*0A
$GPGSV,3,1,12,05,23,165,35,06,30,041,25,11,69,042,33,12,76,332,39*7C
$GPGSV,3,2,12,19,12,074,,20,46,130,25,24,23,210,26,25,43,316,33*72
$GPGSV,3,3,12,28,04,324,18,29,18,281,29,46,49,200,32,48,50,193,35*72
$GPGLL,3342.84806,N,11750.50741,W,221625.00,A,A*7A

$GPRMC,221626.00,A,3342.84811,N,11750.50735,W,0.061,,180324,,,A*6E
$GPVTG,,T,,M,0.061,N,0.113,K,A*27

$GPGGA,221626.00,3342.84811,N,11750.50735,W,1,08,1.03,23.0,M,-32.9,M,,*57
$GPGSA,A,3,12,11,20,25,06,24,05,29,,,,,2.03,1.03,1.75*0A
$GPGSV,3,1,12,05,23,165,35,06,30,041,25,11,69,042,33,12,76,332,39*7C
$GPGSV,3,2,12,19,12,074,,20,46,130,27,24,23,210,26,25,43,316,34*77
$GPGSV,3,3,12,28,04,324,,29,18,281,29,46,49,200,32,48,50,193,35*7B
$GPGLL,3342.84811,N,11750.50735,W,221626.00,A,A*7C

$GPRMC,221627.00,A,3342.84814,N,11750.50737,W,0.152,,180324,,,A*69
$GPVTG,,T,,M,0.152,N,0.281,K,A*2E

$GPGGA,221627.00,3342.84814,N,11750.50737,W,1,08,1.03,22.9,M,-32.9,M,,*59
$GPGSA,A,3,12,11,20,25,06,24,05,29,,,,,2.03,1.03,1.75*0A
$GPGSV,3,1,12,05,23,165,35,06,30,041,26,11,69,042,33,12,76,332,39*7F
$GPGSV,3,2,12,19,12,074,14,20,46,130,28,24,23,210,27,25,43,316,34*7C
$GPGSV,3,3,12,28,04,324,,29,18,281,30,46,49,200,33,48,50,193,36*71
$GPGLL,3342.84814,N,11750.50737,W,221627.00,A,A*7A

$GPRMC,221628.00,A,3342.84815,N,11750.50742,W,0.042,,180324,,,A*65
$GPVTG,,T,,M,0.042,N,0.078,K,A*2A

$GPGGA,221628.00,3342.84815,N,11750.50742,W,1,08,1.03,22.9,M,-32.9,M,,*55
$GPGSA,A,3,12,11,20,25,06,24,05,29,,,,,2.03,1.03,1.75*0A
$GPGSV,3,1,12,05,23,165,35,06,30,041,25,11,69,042,33,12,76,332,39*7C
$GPGSV,3,2,12,19,12,074,13,20,46,130,28,24,23,210,26,25,43,316,33*7D
$GPGSV,3,3,12,28,04,324,,29,18,281,30,46,49,200,34,48,50,193,36*76
$GPGLL,3342.84815,N,11750.50742,W,221628.00,A,A*76

$GPRMC,221629.00,A,3342.84816,N,11750.50744,W,0.048,,180324,,,A*6B
$GPVTG,,T,,M,0.048,N,0.089,K,A*2E

$GPGGA,221629.00,3342.84816,N,11750.50744,W,1,08,1.03,22.8,M,-32.9,M,,*50
$GPGSA,A,3,12,11,20,25,06,24,05,29,,,,,2.03,1.03,1.75*0A
$GPGSV,3,1,12,05,23,165,36,06,30,041,25,11,69,042,33,12,76,332,39*7F
$GPGSV,3,2,12,19,12,074,11,20,46,130,28,24,23,210,26,25,43,316,33*7F
$GPGSV,3,3,12,28,04,324,,29,18,281,30,46,49,200,33,48,50,193,35*72
$GPGLL,3342.84816,N,11750.50744,W,221629.00,A,A*72

$GPRMC,221630.00,A,3342.84817,N,11750.50747,W,0.106,,180324,,,A*6A
$GPVTG,,T,,M,0.106,N,0.196,K,A*2A

$GPGGA,221630.00,3342.84817,N,11750.50747,W,1,08,1.03,22.8,M,-32.9,M,,*5A
$GPGSA,A,3,12,11,20,25,06,24,05,29,,,,,2.03,1.03,1.75*0A
$GPGSV,3,1,12,05,23,165,36,06,30,041,23,11,69,042,34,12,76,332,38*7F
$GPGSV,3,2,12,19,12,074,10,20,46,130,28,24,23,210,25,25,43,316,33*7D
$GPGSV,3,3,12,28,04,324,,29,18,281,30,46,49,200,33,48,50,193,36*71
$GPGLL,3342.84817,N,11750.50747,W,221630.00,A,A*78

$GPRMC,221631.00,A,3342.84818,N,11750.50746,W,0.123,,180324,,,A*62
$GPVTG,,T,,M,0.123,N,0.228,K,A*2B

$GPGGA,221631.00,3342.84818,N,11750.50746,W,1,08,1.03,22.8,M,-32.9,M,,*55
$GPGSA,A,3,12,11,20,25,06,24,05,29,,,,,2.03,1.03,1.75*0A
$GPGSV,3,1,12,05,23,165,36,06,30,041,25,11,69,042,34,12,76,332,38*79
$GPGSV,3,2,12,19,12,074,10,20,46,130,28,24,23,210,25,25,43,316,34*7A
$GPGSV,3,3,12,28,04,324,,29,18,281,29,46,49,200,33,48,50,193,36*79
$GPGLL,3342.84818,N,11750.50746,W,221631.00,A,A*77

$GPRMC,221632.00,A,3342.84812,N,11750.50751,W,0.041,,180324,,,A*68
$GPVTG,,T,,M,0.041,N,0.075,K,A*24

$GPGGA,221632.00,3342.84812,N,11750.50751,W,1,08,1.03,23.0,M,-32.9,M,,*53
$GPGSA,A,3,12,11,20,25,06,24,05,29,,,,,2.03,1.03,1.75*0A
$GPGSV,3,1,12,05,23,165,36,06,30,041,27,11,69,042,34,12,76,332,39*7A
$GPGSV,3,2,12,19,12,074,,20,46,130,28,24,23,210,25,25,43,316,34*7B
$GPGSV,3,3,12,28,04,324,20,29,18,281,29,46,49,200,33,48,50,193,35*78
$GPGLL,3342.84812,N,11750.50751,W,221632.00,A,A*78

$GPRMC,221633.00,A,3342.84813,N,11750.50748,W,0.076,,180324,,,A*64
$GPVTG,,T,,M,0.076,N,0.140,K,A*27

$GPGGA,221633.00,3342.84813,N,11750.50748,W,1,08,1.03,23.0,M,-32.9,M,,*5B
$GPGSA,A,3,12,11,20,25,06,24,05,29,,,,,2.03,1.03,1.75*0A
$GPGSV,3,1,12,05,23,165,36,06,30,041,27,11,69,042,33,12,76,332,39*7D
$GPGSV,3,2,12,19,12,074,,20,46,130,28,24,23,210,25,25,43,316,34*7B
$GPGSV,3,3,12,28,04,324,19,29,18,281,29,46,49,200,33,48,50,193,35*72
$GPGLL,3342.84813,N,11750.50748,W,221633.00,A,A*70

$GPRMC,221634.00,A,3342.84812,N,11750.50752,W,0.148,,180324,,,A*65
$GPVTG,,T,,M,0.148,N,0.274,K,A*2F

$GPGGA,221634.00,3342.84812,N,11750.50752,W,1,08,1.03,23.0,M,-32.9,M,,*56
$GPGSA,A,3,12,11,20,25,06,24,05,29,,,,,2.03,1.03,1.75*0A
$GPGSV,3,1,12,05,23,165,35,06,30,041,25,11,69,042,33,12,76,332,39*7C
$GPGSV,3,2,12,19,12,074,,20,46,130,28,24,23,209,25,25,43,316,34*73
$GPGSV,3,3,12,28,04,324,18,29,18,281,30,46,49,200,32,48,50,193,36*79
$GPGLL,3342.84812,N,11750.50752,W,221634.00,A,A*7D

$GPRMC,221635.00,A,3342.84809,N,11750.50757,W,0.082,,180324,,,A*6C
$GPVTG,,T,,M,0.082,N,0.151,K,A*2C

$GPGGA,221635.00,3342.84809,N,11750.50757,W,1,08,1.03,23.0,M,-32.9,M,,*58
$GPGSA,A,3,12,11,20,25,06,24,05,29,,,,,2.03,1.03,1.75*0A
$GPGSV,3,1,12,05,23,165,35,06,30,041,25,11,69,042,33,12,76,332,39*7C
$GPGSV,3,2,12,19,12,074,17,20,46,130,28,24,23,209,24,25,43,316,34*74
$GPGSV,3,3,12,28,04,324,19,29,18,281,30,46,49,200,33,48,50,193,36*79
$GPGLL,3342.84809,N,11750.50757,W,221635.00,A,A*73

$GPRMC,221636.00,A,3342.84820,N,11750.50772,W,0.767,,180324,,,A*6F
$GPVTG,,T,,M,0.767,N,1.421,K,A*23

$GPGGA,221636.00,3342.84820,N,11750.50772,W,1,08,1.03,23.0,M,-32.9,M,,*57
$GPGSA,A,3,12,11,20,25,06,24,05,29,,,,,2.03,1.03,1.75*0A
$GPGSV,3,1,12,05,23,165,36,06,30,041,24,11,69,042,33,12,76,332,39*7E
$GPGSV,3,2,12,19,12,074,15,20,46,130,28,24,23,209,24,25,43,316,34*76
$GPGSV,3,3,12,28,04,324,19,29,18,281,29,46,49,200,33,48,50,193,36*71
$GPGLL,3342.84820,N,11750.50772,W,221636.00,A,A*7C

$GPRMC,221637.00,A,3342.84883,N,11750.50866,W,4.805,311.15,180324,,,A*7B
$GPVTG,311.15,T,,M,4.805,N,8.898,K,A*32

$GPGGA,221637.00,3342.84883,N,11750.50866,W,1,08,1.03,23.0,M,-32.9,M,,*55
$GPGSA,A,3,12,11,20,25,06,24,05,29,,,,,2.03,1.03,1.75*0A
$GPGSV,3,1,12,05,23,165,38,06,30,041,23,11,69,042,34,12,76,332,39*70
$GPGSV,3,2,12,19,12,074,17,20,46,130,31,24,23,209,25,25,43,316,35*7C
$GPGSV,3,3,12,28,04,324,20,29,18,281,33,46,49,200,33,48,50,193,36*70
$GPGLL,3342.84883,N,11750.50866,W,221637.00,A,A*7E

$GPRMC,221638.00,A,3342.85005,N,11750.51061,W,8.313,307.68,180324,,,A*70
$GPVTG,307.68,T,,M,8.313,N,15.395,K,A*05
$GPGGA,221638.00,3342.85005,N,11750.51061,W,1,09,0.87,22.9,M,-32.9,M,,*57
$GPGSA,A,3,12,11,20,25,06,24,05,29,19,,,,1.59,0.87,1.33*01

$GPGSV,3,1,12,05,23,165,36,06,30,041,23,11,69,042,33,12,76,332,39*79
$GPGSV,3,2,12,19,12,074,19,20,46,130,31,24,23,209,27,25,43,316,34*71
$GPGSV,3,3,12,28,04,324,20,29,18,281,28,46,49,200,32,48,50,193,35*78
$GPGLL,3342.85005,N,11750.51061,W,221638.00,A,A*78

$GPRMC,221639.00,A,3342.85115,N,11750.51357,W,10.313,294.05,180324,,,A*4E
$GPVTG,294.05,T,,M,10.313,N,19.100,K,A*3E

$GPGGA,221639.00,3342.85115,N,11750.51357,W,1,09,0.87,22.7,M,-32.9,M,,*5E
$GPGSA,A,3,12,11,20,25,06,24,05,29,19,,,,1.59,0.87,1.33*01
$GPGSV,3,1,12,05,23,165,29,06,30,041,26,11,69,042,33,12,76,332,37*7C
$GPGSV,3,2,12,19,12,074,20,20,46,130,25,24,23,209,33,25,43,316,25*7B
$GPGSV,3,3,12,28,04,324,18,29,18,281,28,46,49,200,35,48,50,193,*72
$GPGLL,3342.85115,N,11750.51357,W,221639.00,A,A*7F

$GPRMC,221640.00,A,3342.85128,N,11750.51752,W,12.150,271.97,180324,,,A*48
$GPVTG,271.97,T,,M,12.150,N,22.503,K,A*36
$GPGGA,221640.00,3342.85128,N,11750.51752,W,1,09,0.87,22.6,M,-32.9,M,,*5E

$GPGSA,A,3,12,11,20,25,06,24,05,29,19,,,,1.59,0.87,1.33*01
$GPGSV,3,1,12,05,23,165,28,06,30,041,31,11,69,042,36,12,76,332,37*7E
$GPGSV,3,2,12,19,12,074,20,20,46,130,35,24,23,209,35,25,43,316,31*79
$GPGSV,3,3,12,28,04,324,16,29,18,281,26,46,49,200,38,48,50,193,38*74
$GPGLL,3342.85128,N,11750.51752,W,221640.00,A,A*7E

$GPRMC,221641.00,A,3342.85014,N,11750.52201,W,14.963,251.30,180324,,,A*46
$GPVTG,251.30,T,,M,14.963,N,27.711,K,A*33
$GPGGA,221641.00,3342.85014,N,11750.52201,W,1,09,0.87,22.5,M,-32.9,M,,*52

$GPGSA,A,3,12,11,20,25,06,24,05,29,19,,,,1.59,0.87,1.33*01
$GPGSV,3,1,12,05,23,165,38,06,30,041,30,11,69,042,28,12,76,332,30*76
$GPGSV,3,2,12,19,12,074,20,20,46,130,41,24,23,209,32,25,43,316,24*79
$GPGSV,3,3,12,28,04,324,15,29,18,281,25,46,49,200,36,48,50,193,37*75
$GPGLL,3342.85014,N,11750.52201,W,221641.00,A,A*71

$GPRMC,221642.00,A,3342.84780,N,11750.52664,W,17.088,234.45,180324,,,A*47
$GPVTG,234.45,T,,M,17.088,N,31.647,K,A*38
$GPGGA,221642.00,3342.84780,N,11750.52664,W,1,09,0.87,22.0,M,-32.9,M,,*58
$GPGSA,A,3,12,11,20,25,06,24,05,29,19,,,,1.59,0.87,1.33*01

$GPGSV,3,1,12,05,23,165,29,06,30,041,23,11,69,042,38,12,76,332,36*73
$GPGSV,3,2,12,19,12,074,20,20,46,130,25,24,23,209,33,25,43,316,25*7B
$GPGSV,3,3,12,28,04,324,14,29,18,281,22,46,49,200,36,48,50,193,33*77
$GPGLL,3342.84780,N,11750.52664,W,221642.00,A,A*7E

$GPRMC,221643.00,A,3342.84413,N,11750.53123,W,19.634,223.33,180324,,,A*42
$GPVTG,223.33,T,,M,19.634,N,36.362,K,A*35

$GPGGA,221643.00,3342.84413,N,11750.53123,W,1,09,0.87,21.9,M,-32.9,M,,*5F
$GPGSA,A,3,12,11,20,25,06,24,05,29,19,,,,1.59,0.87,1.33*01
$GPGSV,3,1,12,05,23,165,21,06,30,041,24,11,69,042,35,12,76,332,37*70
$GPGSV,3,2,12,19,12,074,29,20,46,130,32,24,23,209,33,25,43,316,25*74
$GPGSV,3,3,12,28,04,324,13,29,18,281,21,46,49,200,36,48,50,193,36*76
$GPGLL,3342.84413,N,11750.53123,W,221643.00,A,A*73

$GPRMC,221644.00,A,3342.83970,N,11750.53612,W,22.058,222.57,180324,,,A*48
$GPVTG,222.57,T,,M,22.058,N,40.851,K,A*38

$GPGGA,221644.00,3342.83970,N,11750.53612,W,1,09,0.87,21.8,M,-32.9,M,,*53
$GPGSA,A,3,12,11,20,25,06,24,05,29,19,,,,1.59,0.87,1.33*01
$GPGSV,3,1,12,05,23,165,23,06,30,041,25,11,69,042,34,12,76,332,37*72
$GPGSV,3,2,12,19,12,074,33,20,46,130,26,24,23,209,33,25,43,316,23*7C
$GPGSV,3,3,12,28,04,324,11,29,18,281,20,46,49,200,33,48,50,193,36*70
$GPGLL,3342.83970,N,11750.53612,W,221644.00,A,A*7E

$GPRMC,221645.00,A,3342.83495,N,11750.54148,W,23.937,223.46,180324,,,A*40
$GPVTG,223.46,T,,M,23.937,N,44.332,K,A*32
$GPGGA,221645.00,3342.83495,N,11750.54148,W,1,09,0.87,21.6,M,-32.9,M,,*55

$GPGSA,A,3,12,11,20,25,06,24,05,29,19,,,,1.59,0.87,1.33*01
$GPGSV,3,1,12,05,23,165,33,06,30,041,26,11,69,042,34,12,76,332,37*70
$GPGSV,3,2,12,19,12,074,27,20,46,130,31,24,23,209,30,25,43,316,25*7A
$GPGSV,3,3,12,28,04,324,10,29,18,281,21,46,49,200,35,48,50,193,36*76
$GPGLL,3342.83495,N,11750.54148,W,221645.00,A,A*76

$GPRMC,221646.00,A,3342.83023,N,11750.54778,W,25.628,228.86,180324,,,A*4F
$GPVTG,228.86,T,,M,25.628,N,47.464,K,A*35
$GPGGA,221646.00,3342.83023,N,11750.54778,W,1,09,0.87,21.2,M,-32.9,M,,*5E

$GPGSA,A,3,12,11,20,25,06,24,05,29,19,,,,1.59,0.87,1.33*01
$GPGSV,3,1,12,05,23,165,37,06,30,041,26,11,69,042,26,12,76,332,21*70
$GPGSV,3,2,12,19,12,074,24,20,46,130,31,24,23,209,29,25,43,316,24*70
$GPGSV,3,3,12,28,04,324,10,29,18,281,20,46,49,200,39,48,50,193,35*78
$GPGLL,3342.83023,N,11750.54778,W,221646.00,A,A*79

$GPRMC,221647.00,A,3342.82594,N,11750.55450,W,25.163,232.85,180324,,,A*4E
$GPVTG,232.85,T,,M,25.163,N,46.603,K,A*37

$GPGGA,221647.00,3342.82594,N,11750.55450,W,1,09,0.87,20.5,M,-32.9,M,,*59
$GPGSA,A,3,12,11,20,25,06,24,05,29,19,,,,1.59,0.87,1.33*01
$GPGSV,3,1,12,05,23,165,23,06,30,041,24,11,69,042,35,12,76,332,34*71
$GPGSV,3,2,12,19,12,074,21,20,46,130,34,24,23,209,30,25,43,316,24*78
$GPGSV,3,3,12,28,04,324,09,29,18,281,28,46,49,200,36,48,50,193,33*71
$GPGLL,3342.82594,N,11750.55450,W,221647.00,A,A*78

$GPRMC,221648.00,A,3342.82190,N,11750.56221,W,27.397,239.20,180324,,,A*4D
$GPVTG,239.20,T,,M,27.397,N,50.740,K,A*39

$GPGGA,221648.00,3342.82190,N,11750.56221,W,1,09,0.87,20.5,M,-32.9,M,,*55
$GPGSA,A,3,12,11,20,25,06,24,05,29,19,,,,1.59,0.87,1.33*01
$GPGSV,3,1,12,05,23,165,31,06,30,041,21,11,69,042,37,12,76,332,35*74
$GPGSV,3,2,12,19,12,074,19,20,46,130,24,24,23,209,32,25,43,316,22*76
$GPGSV,3,3,12,28,04,324,09,29,18,281,22,46,49,200,33,48,50,193,33*7E
$GPGLL,3342.82190,N,11750.56221,W,221648.00,A,A*74

$GPRMC,221649.00,A,3342.81861,N,11750.57053,W,27.462,245.70,180324,,,A*4D

$GPVTG,245.70,T,,M,27.462,N,50.861,K,A*36
$GPGGA,221649.00,3342.81861,N,11750.57053,W,1,09,0.87,20.2,M,-32.9,M,,*51
$GPGSA,A,3,12,11,20,25,06,24,05,29,19,,,,1.59,0.87,1.33*01
$GPGSV,3,1,12,05,23,165,35,06,30,041,31,11,69,042,27,12,76,332,25*71
$GPGSV,3,2,12,19,12,074,19,20,46,130,35,24,23,209,35,25,43,316,21*72
$GPGSV,3,3,12,28,04,324,10,29,18,281,20,46,49,200,34,48,50,193,32*72
$GPGLL,3342.81861,N,11750.57053,W,221649.00,A,A*77

$GPRMC,221650.00,A,3342.81597,N,11750.57955,W,28.610,252.83,180324,,,A*4C
$GPVTG,252.83,T,,M,28.610,N,52.986,K,A*3E

$GPGGA,221650.00,3342.81597,N,11750.57955,W,1,09,0.87,20.1,M,-32.9,M,,*51
$GPGSA,A,3,12,11,20,25,06,24,05,29,19,,,,1.59,0.87,1.33*01
$GPGSV,3,1,12,05,23,165,35,06,30,041,22,11,69,042,26,12,76,332,25*72
$GPGSV,3,2,12,19,12,074,19,20,46,130,41,24,23,209,33,25,43,316,19*7C
$GPGSV,3,3,12,28,04,324,10,29,18,281,22,46,49,200,33,48,50,193,32*77
$GPGLL,3342.81597,N,11750.57955,W,221650.00,A,A*74

$GPRMC,221651.00,A,3342.81435,N,11750.58906,W,29.295,260.35,180324,,,A*49
$GPVTG,260.35,T,,M,29.295,N,54.255,K,A*39
$GPGGA,221651.00,3342.81435,N,11750.58906,W,1,09,0.87,20.0,M,-32.9,M,,*51
$GPGSA,A,3,12,11,20,25,06,24,05,29,19,,,,1.59,0.87,1.33*01

$GPGSV,3,1,12,05,23,165,34,06,30,041,19,11,69,042,33,12,76,332,28*72
$GPGSV,3,2,12,19,12,074,21,20,46,130,40,24,23,209,32,25,43,316,22*7F
$GPGSV,3,3,12,28,04,324,10,29,18,281,29,46,49,200,32,48,50,193,38*77
$GPGLL,3342.81435,N,11750.58906,W,221651.00,A,A*75

$GPRMC,221652.00,A,3342.81387,N,11750.59889,W,29.492,269.26,180324,,,A*49

$GPVTG,269.26,T,,M,29.492,N,54.619,K,A*3F
$GPGGA,221652.00,3342.81387,N,11750.59889,W,1,09,0.87,20.8,M,-32.9,M,,*53
$GPGSA,A,3,12,11,20,25,06,24,05,29,19,,,,1.59,0.87,1.33*01
$GPGSV,3,1,12,05,23,165,21,06,30,041,26,11,69,042,36,12,76,332,38*7E
$GPGSV,3,2,12,19,12,074,20,20,46,130,36,24,23,209,30,25,43,316,30*7E
$GPGSV,3,3,12,28,04,324,10,29,18,281,32,46,49,200,38,48,50,193,38*77
$GPGLL,3342.81387,N,11750.59889,W,221652.00,A,A*7F

$GPRMC,221653.00,A,3342.81459,N,11750.60858,W,29.593,276.81,180324,,,A*49
$GPVTG,276.81,T,,M,29.593,N,54.806,K,A*3C

$GPGGA,221653.00,3342.81459,N,11750.60858,W,1,09,0.87,20.5,M,-32.9,M,,*5D
$GPGSA,A,3,12,11,20,25,06,24,05,29,19,,,,1.59,0.87,1.33*01
$GPGSV,3,1,12,05,23,165,29,06,30,041,15,11,69,042,28,12,76,332,38*79
$GPGSV,3,2,12,19,12,074,17,20,46,130,32,24,23,209,30,25,43,316,34*7A
$GPGSV,3,3,12,28,04,324,10,29,18,281,34,46,49,200,38,48,50,193,37*7E
$GPGLL,3342.81459,N,11750.60858,W,221653.00,A,A*7C

$GPRMC,221654.00,A,3342.81618,N,11750.61818,W,29.283,283.87,180324,,,A*46
$GPVTG,283.87,T,,M,29.283,N,54.231,K,A*38

$GPGGA,221654.00,3342.81618,N,11750.61818,W,1,09,0.87,21.0,M,-32.9,M,,*5C
$GPGSA,A,3,12,11,20,25,06,24,05,29,19,,,,1.59,0.87,1.33*01
$GPGSV,3,1,12,05,23,165,32,06,30,041,11,11,69,042,28,12,76,332,38*77
$GPGSV,3,2,12,19,12,074,14,20,46,130,35,24,23,209,31,25,43,316,36*7D
$GPGSV,3,3,12,28,04,324,10,29,18,281,28,46,49,200,38,48,50,193,35*71
$GPGLL,3342.81618,N,11750.61818,W,221654.00,A,A*79

$GPRMC,221655.00,A,3342.81883,N,11750.62746,W,29.573,290.75,180324,,,A*4B
$GPVTG,290.75,T,,M,29.573,N,54.769,K,A*37

$GPGGA,221655.00,3342.81883,N,11750.62746,W,1,09,0.87,21.1,M,-32.9,M,,*57
$GPGSA,A,3,12,11,20,25,06,24,05,29,19,,,,1.59,0.87,1.33*01
$GPGSV,3,1,12,05,23,165,25,06,30,041,16,11,69,042,29,12,76,332,36*79
$GPGSV,3,2,12,19,12,074,13,20,46,130,32,24,23,209,31,25,43,316,24*7E
$GPGSV,3,3,12,28,04,324,10,29,18,281,32,46,49,200,36,48,50,193,30*71
$GPGLL,3342.81883,N,11750.62746,W,221655.00,A,A*73

$GPRMC,221656.00,A,3342.82239,N,11750.63635,W,29.764,297.34,180324,,,A*42
$GPVTG,297.34,T,,M,29.764,N,55.123,K,A*38

$GPGGA,221656.00,3342.82239,N,11750.63635,W,1,09,0.87,21.0,M,-32.9,M,,*59
$GPGSA,A,3,12,11,20,25,06,24,05,29,19,,,,1.59,0.87,1.33*01
$GPGSV,3,1,12,05,23,165,35,06,30,041,21,11,69,042,30,12,76,332,38*7A
$GPGSV,3,2,12,19,12,074,18,20,46,130,25,24,23,209,32,25,43,316,32*77
$GPGSV,3,3,12,28,04,324,09,29,18,281,35,46,49,200,31,48,50,193,29*71
$GPGLL,3342.82239,N,11750.63635,W,221656.00,A,A*7C

$GPRMC,221657.00,A,3342.82641,N,11750.64477,W,29.191,301.13,180324,,,A*4C
$GPVTG,301.13,T,,M,29.191,N,54.062,K,A*3A

$GPGGA,221657.00,3342.82641,N,11750.64477,W,1,09,0.87,21.0,M,-32.9,M,,*50
$GPGSA,A,3,12,11,20,25,06,24,05,29,19,,,,1.59,0.87,1.33*01
$GPGSV,3,1,12,05,23,165,37,06,30,041,30,11,69,042,31,12,76,332,39*78
$GPGSV,3,2,12,19,12,074,21,20,46,130,24,24,23,209,27,25,43,316,35*7F
$GPGSV,3,3,12,28,04,324,09,29,18,281,32,46,49,200,29,48,50,193,32*75
$GPGLL,3342.82641,N,11750.64477,W,221657.00,A,A*75

$GPRMC,221658.00,A,3342.83060,N,11750.65302,W,29.254,301.32,180324,,,A*4A

$GPVTG,301.32,T,,M,29.254,N,54.178,K,A*39
$GPGGA,221658.00,3342.83060,N,11750.65302,W,1,09,0.87,20.8,M,-32.9,M,,*56
$GPGSA,A,3,12,11,20,25,06,24,05,29,19,,,,1.59,0.87,1.33*01
$GPGSV,3,1,12,05,23,165,38,06,30,041,24,11,69,042,31,12,76,332,39*72
$GPGSV,3,2,12,19,12,074,24,20,46,130,23,24,23,209,26,25,43,316,35*7C
$GPGSV,3,3,12,28,04,324,09,29,18,281,32,46,49,200,30,48,50,193,32*7D
$GPGLL,3342.83060,N,11750.65302,W,221658.00,A,A*7A

$GPRMC,221659.00,A,3342.83463,N,11750.66139,W,29.089,299.58,180324,,,A*4B
$GPVTG,299.58,T,,M,29.089,N,53.873,K,A*32

$GPGGA,221659.00,3342.83463,N,11750.66139,W,1,09,0.87,20.7,M,-32.9,M,,*56
$GPGSA,A,3,12,11,20,25,06,24,05,29,19,,,,1.59,0.87,1.33*01
$GPGSV,3,1,12,05,23,165,35,06,30,041,30,11,69,042,30,12,76,332,39*7B
$GPGSV,3,2,12,19,12,074,24,20,46,130,24,24,23,209,27,25,43,316,32*7D
$GPGSV,3,3,12,28,04,324,09,29,18,281,32,46,49,200,29,48,50,193,32*75
$GPGLL,3342.83463,N,11750.66139,W,221659.00,A,A*75

$GPRMC,221700.00,A,3342.83837,N,11750.66973,W,28.269,297.25,180324,,,A*44
$GPVTG,297.25,T,,M,28.269,N,52.355,K,A*35

$GPGGA,221700.00,3342.83837,N,11750.66973,W,1,09,0.87,20.6,M,-32.9,M,,*51
$GPGSA,A,3,12,11,20,25,06,24,05,29,19,,,,1.59,0.87,1.33*01
$GPGSV,3,1,12,05,23,165,35,06,30,041,22,11,69,042,24,12,76,332,30*74
$GPGSV,3,2,12,19,12,074,22,20,46,130,24,24,23,209,33,25,43,316,25*78
$GPGSV,3,3,12,28,04,324,09,29,18,281,34,46,49,200,29,48,50,193,30*71
$GPGLL,3342.83837,N,11750.66973,W,221700.00,A,A*73

$GPRMC,221701.00,A,3342.84151,N,11750.67813,W,27.463,293.37,180324,,,A*49
$GPVTG,293.37,T,,M,27.463,N,50.862,K,A*3C

$GPGGA,221701.00,3342.84151,N,11750.67813,W,1,09,0.87,20.6,M,-32.9,M,,*58
$GPGSA,A,3,12,11,20,25,06,24,05,29,19,,,,1.59,0.87,1.33*01
$GPGSV,3,1,12,05,23,165,31,06,30,041,23,11,69,042,31,12,76,332,38*7D
$GPGSV,3,2,12,19,12,074,20,20,46,130,23,24,23,209,33,25,43,316,25*7D
$GPGSV,3,3,12,28,04,324,09,29,18,281,35,46,49,200,34,48,50,193,27*7A
$GPGLL,3342.84151,N,11750.67813,W,221701.00,A,A*7A

$GPRMC,221702.00,A,3342.84397,N,11750.68651,W,26.467,288.11,180324,,,A*4E
$GPVTG,288.11,T,,M,26.467,N,49.016,K,A*34
$GPGGA,221702.00,3342.84397,N,11750.68651,W,1,09,0.87,20.4,M,-32.9,M,,*56
$GPGSA,A,3,12,11,20,25,06,24,05,29,19,,,,1.59,0.87,1.33*01

$GPGSV,3,1,12,05,23,165,22,06,30,041,26,11,69,042,32,12,76,332,38*79
$GPGSV,3,2,12,19,12,074,19,20,46,130,35,24,23,209,33,25,43,316,25*70
$GPGSV,3,3,12,28,04,324,09,29,18,281,30,46,49,200,39,48,50,193,33*77
$GPGLL,3342.84397,N,11750.68651,W,221702.00,A,A*76

$GPRMC,221703.00,A,3342.84575,N,11750.69491,W,26.252,282.08,180324,,,A*48
$GPVTG,282.08,T,,M,26.252,N,48.619,K,A*3E

$GPGGA,221703.00,3342.84575,N,11750.69491,W,1,09,0.87,20.0,M,-32.9,M,,*56
$GPGSA,A,3,12,11,20,25,06,24,05,29,19,,,,1.59,0.87,1.33*01
$GPGSV,3,1,12,05,23,165,30,06,30,041,25,11,69,042,33,12,76,332,36*76
$GPGSV,3,2,12,19,12,074,17,20,46,130,34,24,23,209,29,25,43,316,35*75
$GPGSV,3,3,12,28,04,324,09,29,18,281,33,46,49,200,38,48,50,193,33*75
$GPGLL,3342.84575,N,11750.69491,W,221703.00,A,A*72

$GPRMC,221704.00,A,3342.84665,N,11750.70364,W,26.523,274.84,180324,,,A*44
$GPVTG,274.84,T,,M,26.523,N,49.121,K,A*3F

$GPGGA,221704.00,3342.84665,N,11750.70364,W,1,09,0.87,19.8,M,-32.9,M,,*54
